stop_id,stop_code,stop_name,stop_desc,stop_lat,stop_lon,zone_id,stop_url,location_type,parent_station
3451,10,Vatra Luminoasa,,44.437265,26.13652,,,,
3583,100,Piata Rahova,,44.405699,26.063171,,,,
7590,1000,Faur,,44.426239,26.17895,,,,
7554,1002,Bd. 1 Decembrie 1918,,44.41862,26.176031,,,,
7552,1003,Codrii Neamtului,,44.41742,26.17108,,,,
7553,1004,Bd. Nicolae Grigorescu,,44.415918,26.166249,,,,
7557,1005,Postavarului,,44.417705,26.165225,,,,
7558,1006,Policlinica Titan,,44.420519,26.164628,,,,
7555,1007,Liviu Rebreanu,,44.424868,26.162121,,,,
7556,1008,Constantin Brancusi,,44.429723,26.162106,,,,
7560,1009,Bd. Basarabia,,44.435854,26.159775,,,,
3582,101,Margeanului,,44.403124,26.057071,,,,
7563,1010,Pictor Harlescu,,44.439333,26.158165,,,,
3924,1012,Bd.Tineretului,,44.407999,26.120237,,,,
7650,1013,Soseaua Iancului,,44.443808,26.148526,,,,
7651,1014,Baicului,,44.444435,26.142502,,,,
7647,1016,Palatul Parlamentului,,44.43042,26.086938,,,,
3919,1017,Ziduri Mosi,,44.454695,26.128621,,,,
3922,1018,Suveica,,44.458485,26.131255,,,,
7649,1019,Soseaua Colentina,,44.462918,26.131801,,,,
3581,102,Antiaeriana,,44.400372,26.050126,,,,
9072,1023,Rocin,,44.482384,26.120597,,,,
3904,1029,Doamna Ghica,,44.46066,26.132323,,,,
3580,103,Depoul Alexandria,,44.39901,26.046381,,,,
3908,1030,Teiul Doamnei,,44.456153,26.129329,,,,
7643,1031,Pod Izvor,,44.43293,26.091822,,,,
7618,1034,Baicului,,44.444115,26.143825,,,,
7617,1035,Soseaua Iancului,,44.443202,26.152599,,,,
7620,1036,Bd. Chisinau,,44.443131,26.156115,,,,
7619,1037,Soseaua Pantelimon,,44.441565,26.166221,,,,
7622,1039,Bd. Nicolae Grigorescu,,44.434292,26.160152,,,,
3579,104,Mezes,,44.484806,26.023453,,,,
7626,1041,Facultatea Medicina Veterinara,,44.433614,26.081023,,,,
7627,1042,Policlinica Titan,,44.420529,26.164319,,,,
7628,1043,Postavarului,,44.417165,26.164927,,,,
7629,1044,Codrii Neamtului,,44.41739,26.172154,,,,
7603,1045,Bd. 1 Decembrie 1918,,44.417991,26.176306,,,,
7602,1047,Bd. Basarabia,,44.436386,26.168826,,,,
3578,105,Marmurei,,44.482369,26.02984,,,,
7604,1050,Fizicienilor,,44.414258,26.152241,,,,
7605,1054,Complex Comercial Vitan Barzesti,,44.399645,26.142618,,,,
7488,1056,Soseaua Oltenitei,,44.385402,26.13895,,,,
7489,1057,Cartier Aparatorii Patriei,,44.37969,26.132811,,,,
7484,1058,Emil Racovita,,44.379155,26.126877,,,,
7487,1059,Bd. Alexandru Obregia,,44.376541,26.119054,,,,
3577,106,Crinului,,44.480761,26.033839,,,,
7483,1060,Dorohoi,,44.376094,26.112514,,,,
7481,1061,Izvorul Oltului,,44.377013,26.105914,,,,
7479,1062,Ucea,,44.377594,26.101772,,,,
7472,1066,Resita,,44.377742,26.100018,,,,
7456,1067,Ucea,,44.377421,26.102266,,,,
7459,1068,Izvorul Oltului,,44.376729,26.107062,,,,
7461,1069,Bd. Constantin Brancoveanu,,44.375822,26.113877,,,,
3576,107,Minerva,,44.479085,26.038003,,,,
7450,1071,Cartier Aparatorii Patriei,,44.380441,26.135589,,,,
7455,1072,Soseaua Oltenitei,,44.386789,26.140223,,,,
7453,1073,Spitalul Sf. Ioan,,44.391935,26.142719,,,,
7447,1074,Complex Comercial Vitan Barzesti,,44.401257,26.142615,,,,
7445,1075,Pod Vitan,,44.404579,26.142438,,,,
3575,108,Bd. Bucurestii Noi,,44.476699,26.045036,,,,
7427,1082,Pod Izvor,,44.432992,26.09069,,,,
7426,1083,Piata Natiunile Unite,,44.42934,26.096838,,,,
7425,1084,Piata Chirigiu,,44.416911,26.080668,,,,
7429,1085,Soseaua Progresului,,44.414992,26.07704,,,,
7428,1086,Piata Unirii 1,,44.42739,26.100943,,,,
3574,109,Carpati,,44.472291,26.049104,,,,
9031,1091,Piata Operei,,44.434381,26.0765,,,,
7405,1093,Depoul Alexandria,,44.398313,26.044306,,,,
7412,1099,Calea Ferentari,,44.408591,26.077901,,,,
3434,11,Piata Iancului,,44.44066,26.134073,,,,
3224,110,Clabucet,,44.471078,26.051762,,,,
7187,1100,Soseaua Progresului,,44.415912,26.079248,,,,
7184,1102,Sebastian,,44.420849,26.066535,,,,
7185,1103,Soseaua Progresului,,44.422332,26.070597,,,,
7180,1104,Valea Oltului,,44.411949,26.017128,,,,
10413,1107,Raul Doamnei,,44.413573,26.025609,,,,
3789,1108,Aleea Vlasiei,,44.416111,26.024773,,,,
3790,1109,Liceul Eugen Lovinescu,,44.417769,26.028356,,,,
6472,112,Soseaua Garii Catelu,,44.425273,26.220568,,,,
3819,1125,Liceul Eugen Lovinescu,,44.41746,26.02742,,,,
3825,1126,Raul Doamnei,,44.41637,26.023185,,,,
7208,1127,Ghidigeni,,44.412628,26.022154,,,,
3823,1128,Mircea Vulcanescu,,44.439941,26.073214,,,,
7211,1130,Valea Oltului,,44.412177,26.018447,,,,
7232,1137,Glinka,,44.462972,26.101568,,,,
7231,1138,Ceaikovski,,44.466271,26.102186,,,,
9266,1145,Rocin,,44.482413,26.121847,,,,
3864,1146,Grup Scolar Auto,,44.43545,25.975515,,,,
3221,115,Piata Presei,,44.475807,26.071744,,,,
7230,1150,Podul Ciorogarla,,44.40085,25.933062,,,,
7228,1153,Ciutaci,,44.401026,25.90993,,,,
7245,1156,Soseaua Stefan cel Mare,,44.45456,26.100685,,,,
3915,1158,Piata Gemeni,,44.445301,26.112175,,,,
6470,116,Piata Iancului,,44.441074,26.132251,,,,
7246,1160,Panselelor,,44.398604,25.919045,,,,
3940,1162,Bucur Obor,,44.450794,26.12581,,,,
3942,1163,Doamna Ghica,,44.463057,26.133811,,,,
3943,1164,Raul Colentina,,44.467169,26.139854,,,,
3895,1166,Sportului,,44.470745,26.15056,,,,
7238,1168,Nicolae Canea,,44.475409,26.1586,,,,
7243,1170,Primaria Domnesti,,44.398767,25.915044,,,,
7242,1172,Nicolae Canea,,44.475397,26.15813,,,,
7244,1173,Cornisor,,44.473196,26.15385,,,,
3912,1174,Sportului,,44.470909,26.149363,,,,
3909,1175,Cartier Colentina,,44.468524,26.142236,,,,
3910,1176,Raul Colentina,,44.466204,26.13737,,,,
3684,1177,Bucur Obor,,44.450873,26.125494,,,,
3685,1178,Fainari,,44.446949,26.122424,,,,
7069,1179,Gara de Nord,,44.447165,26.075363,,,,
6481,118,Spitalul Sf. Ioan,,44.391213,26.142508,,,,
7058,1182,Primaria Sector 1,,44.45312,26.073921,,,,
7057,1183,Piata Ion Mihalache,,44.458846,26.077008,,,,
7056,1184,Bd. Maresal Averescu,,44.462668,26.072128,,,,
7055,1185,Piata Domenii,,44.46539,26.067518,,,,
7054,1187,Scoala de 4 Ani,,44.402899,25.90307,,,,
7052,1189,Marin Dracea,,44.482995,26.108211,,,,
7045,1190,C.F.R. Constanta,,44.48601,26.113442,,,,
7036,1191,C.F.R. Constanta,,44.486722,26.115677,,,,
7033,1192,Pipera,,44.48394,26.10947,,,,
7040,1193,Marin Dracea,,44.483228,26.108199,,,,
7030,1197,Piata Charles de Gaulle,,44.465392,26.087846,,,,
7028,1198,Arcul de Triumf,,44.46759,26.078416,,,,
7080,1199,Bd. Maresal Averescu,,44.461466,26.073378,,,,
3436,12,Bd. Ferdinand,,44.444152,26.128577,,,,
3277,120,Carpati,,44.472556,26.048958,,,,
6883,1200,Piata Ion Mihalache,,44.458977,26.076573,,,,
6885,1201,Primaria Sector 1,,44.453598,26.074385,,,,
6880,1204,Primaria Domnesti,,44.398824,25.914794,,,,
6882,1205,Soseaua Panduri,,44.423718,26.074274,,,,
6881,1206,Piata Arsenalului,,44.425641,26.078268,,,,
6886,1207,Piata Unirii 2,,44.425826,26.102838,,,,
3246,121,Soseaua Chitilei,,44.476712,26.044584,,,,
6844,1211,Romaero,,44.493075,26.085639,,,,
6845,1212,Aeroportul Baneasa,,44.495509,26.077524,,,,
6848,1219,Bd. Gloriei,,44.483793,26.040284,,,,
3249,122,Minerva,,44.479251,26.037695,,,,
6842,1221,Jimbolia,,44.492486,26.033526,,,,
6840,1223,Intrare Sat Catelu,,44.405239,26.21155,,,,
6841,1224,Sebastian,,44.420506,26.064947,,,,
3630,1225,Maria Rosetti,,44.442471,26.109823,,,,
3631,1226,Maria Rosetti,,44.44211,26.109643,,,,
6838,1227,Soseaua Panduri,,44.423052,26.071924,,,,
6839,1228,Podul Ciorogarla,,44.40074,25.933411,,,,
3250,123,Crinului,,44.480923,26.033519,,,,
6837,1230,Jimbolia,,44.491296,26.034194,,,,
6834,1233,Izbiceni,,44.487567,26.047241,,,,
6835,1238,Brodina,,44.497542,26.073689,,,,
6836,1239,Aeroportul Baneasa,,44.4953,26.077683,,,,
3253,124,Subcetate,,44.482517,26.029567,,,,
6829,1243,Calea 13 Septembrie,,44.417648,26.058776,,,,
6831,1247,Margeanului,,44.413892,26.061394,,,,
6830,1249,Aleea Danubiana,,44.364424,26.193952,,,,
3241,125,Mezes,,44.485394,26.023005,,,,
6827,1250,Sere Militari,,44.410203,26.003121,,,,
6826,1253,Carol Davila,,44.432831,26.070366,,,,
6823,1254,Piata Unirii,,44.425689,26.105124,,,,
6825,1256,Soseaua Progresului,,44.42192,26.068907,,,,
6807,1260,Primaria Popesti-Leordeni,,44.380182,26.169098,,,,
6805,1261,Policolor 2,,44.43305,26.207258,,,,
6804,1266,Izvorul Rece,,44.386871,26.1098,,,,
6803,1267,Izvorul Crisului,,44.384223,26.109807,,,,
6802,1268,Lamotesti,,44.380703,26.109878,,,,
6791,1270,Anghel Alexandru,,44.378298,26.091488,,,,
6792,1271,Raducanu Cristea,,44.372907,26.090065,,,,
6788,1276,Raducanu Cristea,,44.373912,26.090559,,,,
6787,1277,Luica,,44.377745,26.091583,,,,
6790,1278,Covasna,,44.377826,26.11026,,,,
6789,1279,Lamotesti,,44.381434,26.110165,,,,
3245,128,Cimitirul Ghencea,,44.416519,26.052975,,,,
6775,1280,Izvorul Crisului,,44.385098,26.110066,,,,
6776,1281,Nitu Vasile,,44.386903,26.110023,,,,
3803,1282,Rasaritului,,44.434225,26.023415,,,,
6777,1283,Calea Rahovei,,44.413601,26.074785,,,,
3804,1285,Rasaritului,,44.434042,26.025323,,,,
3563,1286,Orsova,,44.440145,26.035383,,,,
6774,1287,Pecineaga,,44.4032,26.07281,,,,
6773,1288,Amurgului,,44.400383,26.070943,,,,
6772,1289,Complex Comercial,,44.397087,26.069988,,,,
3261,129,Drumul Sarii,,44.418676,26.059914,,,,
6767,1290,Bacau,,44.392711,26.069906,,,,
6768,1291,Complex Comercial,,44.397179,26.069094,,,,
6765,1292,Amurgului,,44.401005,26.071506,,,,
6766,1293,Pecineaga,,44.403673,26.073206,,,,
6769,1295,Cimitirul Militari,,44.441769,26.02269,,,,
3529,1298,Orsova,,44.440267,26.035344,,,,
3431,13,Soseaua Pantelimon,,44.445988,26.134246,,,,
3298,130,Sebastian,,44.420562,26.065538,,,,
3188,1308,Cutitul de Argint,,44.408906,26.097077,,,,
3296,131,Soseaua Progresului,,44.421834,26.070604,,,,
3100,1312,Adesgo,,44.41129,26.10034,,,,
3120,1321,Scoala Generala 81,,44.419272,26.115107,,,,
3126,1322,Bd. Octavian Goga,,44.423491,26.118492,,,,
3114,1325,Scoala Generala 81,,44.419399,26.115143,,,,
6438,1326,Platforma Metalurgiei,,44.376228,26.120524,,,,
6442,1330,I.M.G.B. Poarta 1,,44.368111,26.143609,,,,
6412,1331,I. M. G. B. Poarta 2,,44.361848,26.148389,,,,
6413,1332,I. M. G. B. Poarta 2,,44.361325,26.148913,,,,
6414,1333,I. M. G. B. Poarta 1,,44.367616,26.144134,,,,
6410,1341,Bd. Preciziei,,44.432285,26.005001,,,,
6409,1342,C.F.R. Cotroceni,,44.4293,26.002374,,,,
3619,1343,Sulitei,,44.401122,26.083688,,,,
6408,1344,Aurel Vlaicu,,44.479223,26.101733,,,,
3618,1345,Sulitei,,44.401225,26.08352,,,,
6407,1346,Brasov,,44.414633,26.035181,,,,
6406,1348,Soseaua Fabrica de Glucoza,,44.474966,26.10409,,,,
3762,135,Invingatorilor,,44.42943,26.130861,,,,
6405,1352,Valea Ialomitei,,44.421524,26.012797,,,,
6418,1353,Sala Lucian Grigorescu,,44.464378,26.095723,,,,
6419,1354,Mircea Eliade,,44.46552,26.10192,,,,
6420,1355,Calea Floreasca,,44.46594,26.10136,,,,
3649,1357,Adesgo,,44.411398,26.100405,,,,
6501,136,Cornisor,,44.473502,26.154807,,,,
3640,1362,Cutitul de Argint,,44.408803,26.096898,,,,
8509,1369,Ferma Zurbaua,,44.48272,25.923596,,,,
8508,1371,Ferma Zurbaua,,44.482448,25.923987,,,,
6396,1376,Berzei,,44.439903,26.080602,,,,
6397,1377,Spitalul Universitar,,44.434891,26.073373,,,,
6395,1385,Soseaua de Centura,,44.438379,25.966161,,,,
6390,1388,Secuilor,,44.391667,26.109779,,,,
6389,1389,Secuilor,,44.392368,26.109925,,,,
3791,1394,Piata Leul,,44.434667,26.05811,,,,
6388,1395,Laromet,,44.495027,26.030455,,,,
3316,140,Piata Ion Mihalache,,44.457795,26.078243,,,,
6061,1400,Pod Eroilor,,44.435034,26.07379,,,,
6058,1401,Berzei,,44.439563,26.08043,,,,
6059,1402,Cismigiu,,44.439817,26.089976,,,,
6060,1403,Bd. Nicolae Balcescu,,44.439081,26.099924,,,,
6054,1405,Penes Curcanul,,44.412214,26.12837,,,,
3303,1409,Gramont,,44.421354,26.095756,,,,
3320,141,Bd. Maresal Averescu,,44.462042,26.072834,,,,
5931,1416,Perla,,44.453671,26.098449,,,,
5930,1417,Pasaj Colentina,,44.478167,26.16396,,,,
5925,1419,Piata Charles de Gaulle,,44.465314,26.087532,,,,
5947,1420,Piata Dorobanti,,44.459762,26.093559,,,,
5949,1421,Soseaua Stefan cel Mare,,44.453835,26.098175,,,,
5948,1422,Institutul Meteorologic,,44.501844,26.210148,,,,
5953,1423,Soseaua Afumati,,44.514863,26.235632,,,,
5951,1424,Doraly,,44.505868,26.217995,,,,
5981,1438,Doraly,,44.504881,26.215787,,,,
5979,1439,Soseaua Afumati,,44.515004,26.235657,,,,
5988,1440,Institutul Meteorologic,,44.501473,26.209068,,,,
5994,1441,Piata Presei,,44.478021,26.073311,,,,
5993,1448,Spatarul Preda,,44.413336,26.086615,,,,
5996,1449,Inclinata,,44.410463,26.089385,,,,
6004,1450,Stefan Hepites,,44.40739,26.09237,,,,
3211,1451,Soseaua Viilor,,44.411787,26.088934,,,,
3702,1460,Bd. Alexandru Ioan Cuza,,44.449656,26.078367,,,,
7469,1467,Oasului,,44.491588,26.027813,,,,
7400,1474,Sebastian,,44.419768,26.066471,,,,
7403,1476,Piata Chirigiu,,44.417441,26.082473,,,,
7421,1484,Aurel Vlaicu,,44.479589,26.099512,,,,
7438,1491,Piata Domenii,,44.465394,26.067121,,,,
7443,1493,Bufet,,44.320348,26.180227,,,,
7441,1494,Boadei,,44.317139,26.183386,,,,
7442,1495,Cofetarie,,44.313942,26.186854,,,,
3427,15,Teiul Doamnei,,44.456613,26.129837,,,,
3103,150,Piata Ion Mihalache,,44.458251,26.077627,,,,
3357,1501,Piata Hurmuzachi,,44.431316,26.139219,,,,
7321,1508,Calea Floreasca,,44.465855,26.10298,,,,
3104,151,Dr. Felix,,44.452142,26.08037,,,,
7307,1516,Stadion Olimpia,,44.411241,26.13589,,,,
7306,1519,C.E.T. Sud Vitan,,44.405992,26.148287,,,,
7285,1522,Stadion Olimpia,,44.411305,26.135963,,,,
7288,1527,Primaria Berceni,,44.3094,26.189069,,,,
7291,1528,Cofetarie,,44.313627,26.187174,,,,
7290,1529,Garibaldi,,44.465446,26.10582,,,,
7396,1530,Boadei,,44.316286,26.184358,,,,
7395,1531,Complex Comercial Apusului,,44.437949,26.014346,,,,
7397,1533,Bufet,,44.319753,26.180795,,,,
7398,1534,Nicolae Golescu,,44.44327,26.097305,,,,
7378,1540,Piata Crangasi,,44.452265,26.047441,,,,
7379,1541,Pasaj Grant,,44.45138,26.059074,,,,
7380,1542,Spitalul Dr. Panait Sarbu,,44.449487,26.061745,,,,
7382,1544,Gara de Nord,,44.445495,26.074289,,,,
10089,1545,Manastirea Cernica,,44.439384,26.260403,,,,
7375,1552,Gara de Nord,,44.44652,26.072955,,,,
7374,1554,Spitalul Dr. Panait Sarbu,,44.450333,26.06081,,,,
7372,1555,Pasaj Grant,,44.453765,26.057655,,,,
7373,1556,Piata Crangasi,,44.453075,26.04824,,,,
6426,156,Scoala Iancului,,44.439519,26.123758,,,,
7353,1560,Zetarilor,,44.387204,26.078366,,,,
7352,1561,Valtoarei,,44.389455,26.080349,,,,
7348,1562,Vadul Nou,,44.392435,26.08242,,,,
7349,1563,Piata Ferentarilor,,44.398748,26.082511,,,,
7350,1564,Armistitiului,,44.400329,26.077249,,,,
7351,1565,Soseaua Salaj,,44.40088,26.070921,,,,
7347,1566,Cap. Preda,,44.403555,26.066875,,,,
10110,1567,Manastirea Cernica,,44.439593,26.260033,,,,
6425,157,Piata Valea Ialomitei,,44.420485,26.020158,,,,
3861,1571,Bd. Iuliu Maniu,,44.433352,26.054247,,,,
3858,1572,Bd. Timisoara,,44.429975,26.054335,,,,
3666,1573,Mircea Vulcanescu,,44.440017,26.073424,,,,
7047,1576,Soseaua Fabrica de Glucoza,,44.474883,26.104296,,,,
7043,1577,Muntii Carpati,,44.40335,26.066171,,,,
7042,1578,Soseaua Salaj,,44.400259,26.071606,,,,
7046,1579,Armistitiului,,44.400298,26.077669,,,,
7048,1580,Piata Ferentarilor,,44.397912,26.083275,,,,
7049,1581,Vadul Nou,,44.393376,26.082945,,,,
7050,1582,Valtoarei,,44.390288,26.080758,,,,
7051,1583,Zetarilor,,44.386285,26.077636,,,,
8499,1586,Pantelimon,,44.439964,26.18451,,,,
7061,1588,Piata Ferentarilor,,44.398249,26.085977,,,,
7068,1590,Suhaia,,44.401714,26.091293,,,,
7066,1591,Piata Eroii Revolutiei,,44.404029,26.096041,,,,
7067,1592,I.M.G.B. Poarta 3,,44.364045,26.135151,,,,
7062,1593,Vulcan Berceni,,44.359548,26.13903,,,,
7064,1594,I.M.G.B. Poarta 3,,44.363839,26.135361,,,,
7072,1595,Suhaia,,44.401303,26.08999,,,,
3429,16,Doamna Ghica,,44.461631,26.132958,,,,
3142,160,Sebastian,,44.420362,26.064833,,,,
8594,1605,Branesti-Gara,,44.460221,26.334173,,,,
3127,161,Drumul Sarii,,44.41849,26.059257,,,,
8595,1613,Islaz,,44.45767,26.385785,,,,
12058,1617,Stirbei Voda,,44.437336,26.076838,,,,
3130,162,Cimitirul Ghencea,,44.41638,26.052424,,,,
6910,1622,Lunca Barzesti,,44.390813,26.127979,,,,
6912,1623,Stadion,,44.388566,26.133169,,,,
6911,1624,Soseaua Vitan Barzesti,,44.385456,26.140608,,,,
6897,1626,Institutul Sf. Maria,,44.381717,26.150882,,,,
6900,1627,Paraul Rece,,44.379951,26.159969,,,,
6899,1628,Cazanesti,,44.379937,26.164146,,,,
6904,1629,Primaria Popesti-Leordeni,,44.379774,26.168426,,,,
6954,1630,Viilor,,44.377078,26.173434,,,,
6953,1631,Viscofil,,44.372596,26.179551,,,,
6951,1632,Taberei,,44.369115,26.184286,,,,
6950,1633,Danubiana,,44.367142,26.19584,,,,
6949,1634,Soseaua Oltenitei,,44.364267,26.193693,,,,
6948,1635,Taberei,,44.368852,26.184762,,,,
6947,1636,Viscofil,,44.372211,26.180246,,,,
6946,1637,Viilor,,44.376777,26.174024,,,,
6945,1638,Primaria Popesti-Leordeni,,44.379607,26.169905,,,,
6944,1639,Cazanesti,,44.380033,26.16443,,,,
6933,1640,Paraul Rece,,44.380126,26.159387,,,,
6935,1641,Institutul Sf. Maria,,44.382069,26.150189,,,,
6929,1643,Soseaua Vitan Barzesti,,44.386606,26.138388,,,,
8610,1644,Stadion,,44.389354,26.131877,,,,
6931,1645,Lunca Barzesti,,44.39166,26.126475,,,,
6926,1648,Soseaua Garii Catelu,,44.441227,26.193025,,,,
6990,1656,Soseaua Garii Catelu,,44.44123,26.191388,,,,
6993,1659,Aeroport Baneasa,,44.496371,26.079808,,,,
3118,166,Roma,,44.452753,26.094487,,,,
6983,1660,Drumul Matasii,,44.506932,26.082231,,,,
6967,1661,Institutul Meteorologic,,44.512786,26.080994,,,,
6968,1663,Padurea Baneasa,,44.516912,26.086695,,,,
6969,1664,Restaurant Baneasa,,44.516319,26.092378,,,,
6970,1665,Gradina Zoologica,,44.515393,26.103992,,,,
6972,1667,Jolie Ville Baneasa,,44.515038,26.114926,,,,
6973,1668,Gradina Zoologica,,44.515389,26.103334,,,,
6975,1669,Restaurant Baneasa,,44.516403,26.091977,,,,
3125,167,Calea Dorobantilor,,44.452987,26.098187,,,,
6965,1670,Padurea Baneasa,,44.51698,26.086353,,,,
7025,1672,Institutul Meteorologic,,44.51319,26.080347,,,,
7026,1673,Drumul Matasii,,44.5082,26.081977,,,,
7022,1674,Aeroport Baneasa,,44.496006,26.078866,,,,
7021,1677,Aleea Privighetorilor,,44.518975,26.077593,,,,
7019,1678,Pasaj C.F.R. Otopeni,,44.529802,26.069912,,,,
7020,1679,Amco,,44.541028,26.068776,,,,
7016,1680,Primaria Otopeni,,44.55002,26.069081,,,,
7015,1681,Icsitmua,,44.559979,26.069492,,,,
7004,1683,DN 1 Aeroportul Henri Coanda,,44.569057,26.069955,,,,
7006,1684,Filan,,44.573643,26.070303,,,,
7007,1685,Primaria Clinceni,,44.377585,25.942528,,,,
7009,1686,Geriatrie Otopeni,,44.57994,26.070376,,,,
8613,1687,C.F.R. Balotesti,,44.584431,26.070428,,,,
7002,1689,Geriatrie Otopeni,,44.579688,26.070216,,,,
3115,169,Vasile Lascar,,44.452874,26.111282,,,,
6997,1690,Filan,,44.573989,26.069893,,,,
6995,1691,DN 1 Aeroportul Henri Coanda,,44.568558,26.069698,,,,
7000,1692,Icsitmua,,44.559666,26.069274,,,,
6999,1693,Primaria Otopeni,,44.550708,26.068851,,,,
6756,1694,Amco,,44.541163,26.068559,,,,
6754,1695,Pasaj C.F.R. Otopeni,,44.529353,26.069794,,,,
6757,1697,Aleea Privighetorilor,,44.517309,26.078729,,,,
3424,17,Raul Colentina,,44.466944,26.139104,,,,
3161,170,Dr. Grozovici,,44.4527,26.114718,,,,
3164,171,Lizeanu,,44.452114,26.119321,,,,
6451,1712,Ceaikovski,,44.463385,26.108041,,,,
3137,1714,Bd. Pache Protopopescu,,44.43926,26.120482,,,,
3171,172,Reinvierii,,44.455047,26.121203,,,,
6433,1720,G-ral Praporgescu,,44.451066,26.00486,,,,
6432,1723,Sat Dudu,,44.457795,25.986978,,,,
6430,1724,Cimitirul Chiajna,,44.462351,25.982249,,,,
6431,1725,Magazin Alimentar,,44.459612,25.972699,,,,
6428,1729,Magazin Alimentar,,44.459617,25.972892,,,,
3174,173,Ziduri Mosi,,44.454235,26.128153,,,,
6663,1730,Biserica Chiajna,,44.461239,25.977484,,,,
6665,1731,Cimitirul Chiajna,,44.462267,25.982342,,,,
6664,1732,Sat Dudu,,44.457654,25.986935,,,,
6669,1735,G-ral Praporgescu,,44.45095,26.006114,,,,
6668,1736,G-ral Eremia Grigorescu,,44.450283,26.008587,,,,
6667,1737,Alexandru Ioan Cuza,,44.448716,26.013426,,,,
6666,1738,Canal Arges,,44.445881,26.017077,,,,
6649,1740,Opera Nationala,,44.434943,26.078003,,,,
6650,1743,Republica,,44.434059,26.185264,,,,
6652,1744,Grup Industrial Titan,,44.43528,26.178096,,,,
6651,1745,Bd. 1 Decembrie 1918,,44.436532,26.172271,,,,
12175,1746,Soseaua Morarilor,,44.43709,26.16982,,,,
6654,1746,Soseaua Morarilor,,44.437171,26.169199,,,,
6653,1747,Soseaua Pantelimon,,44.441587,26.16638,,,,
6656,1748,Intrarea Fundeni,,44.44956,26.165813,,,,
6627,1750,Institutul Oncologic,,44.462982,26.155431,,,,
6625,1751,Spitalul Fundeni,,44.463907,26.152286,,,,
6622,1752,Cartier Colentina,,44.469783,26.144677,,,,
6620,1753,Oituz,,44.472781,26.148652,,,,
6617,1756,Cartier Colentina,,44.46844,26.143857,,,,
6640,1757,Itcani,,44.46479,26.150284,,,,
6638,1758,Spitalul Fundeni,,44.463321,26.15393,,,,
6636,1759,Institutul Oncologic,,44.462663,26.156179,,,,
3158,176,Maica Domnului,,44.455237,26.121623,,,,
6601,1761,Intrarea Fundeni,,44.44863,26.165981,,,,
6604,1762,Bd. 1 Decembrie 1918,,44.436029,26.173857,,,,
6603,1763,Grup Industrial Titan,,44.434942,26.179211,,,,
6600,1764,Faur,,44.434191,26.183805,,,,
3157,178,Dr. Grozovici,,44.452613,26.11594,,,,
7786,1784,Cocorilor,,44.48573,26.178691,,,,
7788,1785,Dispensar,,44.490379,26.187769,,,,
3156,179,Vasile Lascar,,44.452891,26.112019,,,,
7810,1792,Dispensar,,44.489933,26.186568,,,,
7812,1794,Cocorilor,,44.486016,26.178927,,,,
7813,1795,Niro,,44.48403,26.175033,,,,
6560,1797,Laromet,,44.495173,26.031464,,,,
6561,1798,Cimitirul Straulesti,,44.500824,26.027051,,,,
3425,18,Cartier Colentina,,44.468678,26.142902,,,,
6467,180,Soseaua Mihai Bravu 33,,44.445988,26.126987,,,,
3773,1800,Posta,,44.416863,26.020497,,,,
6041,1805,Primaria Mogosoaia,,44.531456,25.99775,,,,
3772,1808,Calea 13 Septembrie,,44.417088,26.057923,,,,
3204,181,Calea Dorobantilor,,44.453018,26.099267,,,,
3143,1811,Fizicienilor,,44.414821,26.153596,,,,
5966,1812,Bucuresti Mall,,44.420455,26.125301,,,,
5967,1813,Bucuresti Mall,,44.420105,26.125811,,,,
3150,1814,Voluntarilor,,44.41645,26.149614,,,,
5970,1815,Primaria Mogosoaia,,44.531735,25.997338,,,,
3153,1817,Voluntarilor,,44.416456,26.149445,,,,
3207,182,Roma,,44.452754,26.094068,,,,
3109,1820,Ilioara,,44.413695,26.15714,,,,
3105,1821,Ilioara,,44.413509,26.158475,,,,
3107,1822,Fizicienilor,,44.414556,26.154111,,,,
5945,1824,Cimitirul Straulesti,,44.500157,26.027286,,,,
5942,1825,Laromet,,44.494995,26.031278,,,,
5946,1828,Mezes,,44.485593,26.022769,,,,
3209,183,Pasaj Victoria,,44.452552,26.091434,,,,
5997,1830,Sere Militari,,44.41014,26.002042,,,,
5998,1831,Radului,,44.403352,25.945268,,,,
6005,1834,Scoala Gheorghe Corneliu,,44.401658,25.907356,,,,
11029,1837,Piata Danny Huwe,,44.429699,26.060771,,,,
6002,1838,Cartier 16 Februarie,,44.470054,26.022471,,,,
6003,1839,Poiana Lacului,,44.467278,26.015718,,,,
5985,1840,Sculptorilor,,44.470726,26.006936,,,,
5983,1841,Scoala,,44.470163,26.002305,,,,
5984,1842,Giulesti Sarbi,,44.471303,26.000913,,,,
5982,1844,Sculptorilor,,44.470664,26.007568,,,,
5991,1845,Intrarea Caramidariei,,44.467349,26.010263,,,,
5992,1846,Cartier 16 Februarie,,44.470357,26.021476,,,,
7681,185,Piata Sf. Gheorghe,,44.432537,26.103862,,,,
6137,1854,Libertatii,,44.512096,25.975016,,,,
6134,1856,Gara Chitila,,44.503536,25.989138,,,,
6133,1858,Utrec,,44.500143,25.99427,,,,
6132,1859,Pasaj Chitila,,44.496078,26.000522,,,,
3210,186,Bd. Carol I,,44.436776,26.110379,,,,
6112,1860,Cpt. Radu Dragos,,44.492591,26.00592,,,,
6114,1861,Sold. Adrian Patru,,44.489747,26.011302,,,,
6113,1862,Maica Teofana,,44.48733,26.017363,,,,
8600,1868,Moara Vlasiei,,44.645102,26.231267,,,,
3195,187,Batistei,,44.439885,26.108757,,,,
6196,1870,Maica Teofana,,44.487652,26.01684,,,,
6193,1871,Sold. Adrian Patru,,44.490764,26.009238,,,,
6192,1872,Cpt. Radu Dragos,,44.493219,26.005149,,,,
6191,1873,Pasaj Chitila,,44.496378,26.000308,,,,
6190,1874,Utrec,,44.50089,25.993402,,,,
6187,1876,Gara Chitila,,44.503322,25.989673,,,,
6186,1878,Libertatii,,44.512547,25.974518,,,,
3193,188,Piata Gemeni,,44.44462,26.111134,,,,
6165,1881,Isovolta,,44.415064,26.217807,,,,
6164,1882,C.F.R. Catelu,,44.412475,26.218078,,,,
6167,1883,Sat Catelu,,44.406763,26.216506,,,,
6159,1886,Soseaua Mihai Bravu,,44.415932,26.131314,,,,
6163,1887,Pod Cotroceni,,44.43783,26.070508,,,,
6156,1889,Sandu Aldea,,44.467729,26.06177,,,,
6082,1892,Zizin,,44.418095,26.128351,,,,
6085,1893,Soseaua Dudesti-Pantelimon,,44.440177,26.192752,,,,
6079,1894,Irisului,,44.437675,26.197805,,,,
6081,1895,Darabani,,44.436143,26.200948,,,,
6087,1896,Pupitrului,,44.434625,26.204062,,,,
6089,1897,Muntii Mehedinti,,44.43055,26.212208,,,,
6086,1898,Piata Catelu,,44.428174,26.217036,,,,
7570,1900,Piata Catelu,,44.428371,26.216893,,,,
7572,1901,Muntii Mehedinti,,44.430885,26.211781,,,,
7574,1902,Policolor 2,,44.433274,26.20702,,,,
7576,1903,Pupitrului,,44.434872,26.203837,,,,
7578,1904,Darabani,,44.436372,26.200722,,,,
7580,1905,Irisului,,44.437898,26.197605,,,,
7581,1906,Soseaua Dudesti-Pantelimon,,44.44065,26.19203,,,,
7584,1907,Piata Vitan,,44.423085,26.1237,,,,
3806,1909,Calea Mosilor,,44.438888,26.115292,,,,
7592,1910,Calea Grivitei,,44.44382,26.089472,,,,
7594,1913,Lucian Blaga,,44.425095,26.122973,,,,
7593,1916,Sat Catelu,,44.406356,26.2156,,,,
9356,1925,Frasari,,44.506979,26.137566,,,,
8792,1926,Moara Vlasiei,,44.645145,26.231136,,,,
6609,193,Gara Baneasa,,44.484066,26.076508,,,,
9346,1932,Frasari,,44.507832,26.137802,,,,
7598,1936,C.F.R. Progresul,,44.369263,26.088804,,,,
7601,1937,Nicolae Balcescu,,44.358294,26.086246,,,,
7599,1939,C.F.R. Centura,,44.340914,26.081204,,,,
3372,194,Bd. Uverturii,,44.436668,26.035133,,,,
7623,1940,Scoala Generala Nr. 1,,44.332754,26.078408,,,,
7625,1942,Garii,,44.326325,26.084739,,,,
7624,1943,Scoala Generala Nr. 2,,44.329119,26.087712,,,,
7612,1944,Putul Lui Gavril,,44.333324,26.093078,,,,
7611,1945,Soseaua de Centura,,44.337387,26.098021,,,,
7614,1946,Bumbacaria Jilava,,44.342617,26.104663,,,,
7613,1947,Bumbacaria Jilava,,44.342833,26.104668,,,,
7616,1948,Soseaua de Centura,,44.336935,26.097406,,,,
7615,1949,Putul Lui Gavril,,44.333223,26.092879,,,,
7642,1950,Scoala Generala Nr. 2,,44.328807,26.087297,,,,
7641,1951,Garii,,44.326412,26.084161,,,,
7639,1953,Scoala Generala Nr. 1,,44.333719,26.078908,,,,
7638,1954,C.F.R. Centura,,44.340384,26.081149,,,,
7636,1956,Nicolae Balcescu,,44.358931,26.086509,,,,
7635,1957,C.F.R. Progresul,,44.369686,26.089441,,,,
7646,1962,Petre Ispirescu,,44.418033,26.057555,,,,
7645,1963,Cimitirul Ghencea,,44.416287,26.051921,,,,
7648,1965,Primaria Jilava,,44.330587,26.077664,,,,
6607,197,Spitalul CFR 2,,44.474782,26.069851,,,,
7415,1973,Cimitirul Ghencea,,44.41663,26.05359,,,,
7416,1975,Cimitirul Eroilor Revolutiei,,44.406788,26.095419,,,,
7417,1976,Sura Mare,,44.401773,26.097465,,,,
7418,1977,Muzeul Bacovia,,44.398028,26.09604,,,,
7419,1978,Piata Progresul,,44.392495,26.093541,,,,
7420,1979,Toporasi,,44.388873,26.091993,,,,
6613,198,G-ral Alexandru Cernat,,44.450637,26.076634,,,,
7432,1980,Drumul Gazarului,,44.385884,26.092101,,,,
7433,1981,Cimitirul Evreiesc,,44.382248,26.092191,,,,
7430,1982,Cimitirul Evreiesc,,44.382689,26.092423,,,,
7431,1983,Drumul Gazarului,,44.386537,26.092253,,,,
7436,1984,Toporasi,,44.390656,26.09293,,,,
7437,1985,Piata Progresul,,44.393713,26.09432,,,,
7434,1986,Muzeul Bacovia,,44.397996,26.096306,,,,
7435,1987,Primaria Jilava,,44.330828,26.077884,,,,
7439,1988,Piata Vitan,,44.423421,26.12295,,,,
7440,1989,Gara Basarab,,44.448864,26.069199,,,,
3374,199,Alexandru cel Bun,,44.459025,26.119984,,,,
7457,1991,Gara Basarab,,44.449257,26.068923,,,,
7458,1992,Zizin,,44.417383,26.128954,,,,
7462,1994,Piata 21 Decembrie 1989,,44.43646,26.101799,,,,
3691,1997,Stirbei Voda,,44.436416,26.07441,,,,
7465,1999,Orsova,,44.440535,26.035525,,,,
5963,2,Lucian Blaga,,44.425999,26.122431,,,,
3439,20,Cornisor,,44.473009,26.15374,,,,
7248,2009,Bd. Dinicu Golescu,,44.442691,26.079551,,,,
7254,201,Cartier Tudor Vladimirescu,,44.41515,26.042527,,,,
3667,2010,Bd. Marasesti,,44.420251,26.103899,,,,
7250,2011,Pod Ciurel,,44.44604,26.038271,,,,
7249,2012,Orsova,,44.439682,26.035225,,,,
3670,2013,Palatul National al Copiilor,,44.409153,26.112966,,,,
3668,2018,Soseaua Oltenitei,,44.394955,26.120994,,,,
3669,2019,Parcul Tineretului,,44.409689,26.112226,,,,
7252,202,Piata Lahovari,,44.445516,26.099708,,,,
3678,2020,Bd. Marasesti,,44.420058,26.104224,,,,
7256,2021,Universitate,,44.434372,26.103135,,,,
7257,2022,Piata Sf. Gheorghe,,44.432703,26.103636,,,,
3900,2033,Valea Argesului,,44.416005,26.016416,,,,
3944,2039,Favorit,,44.423254,26.047179,,,,
3113,204,Alexandru cel Bun,,44.459131,26.119904,,,,
3913,2041,Drumetul,,44.418495,26.041466,,,,
3917,2043,Valea Argesului,,44.415712,26.015677,,,,
3875,2046,Drumetul,,44.418576,26.04252,,,,
3874,2047,Sibiu,,44.420207,26.048147,,,,
7253,205,Gara de Nord,,44.447046,26.075748,,,,
7336,2054,Primaria Berceni,,44.309297,26.189147,,,,
3857,2055,Drumul Taberei 98,,44.41684,26.021562,,,,
7338,2056,Bd. Abatorului,,44.410213,26.116111,,,,
8678,2057,Manastirea Samurcasesti,,44.43661,25.876583,,,,
8687,2058,Manastirea Samurcasesti,,44.439008,25.875965,,,,
7741,2061,C.F.R. Balotesti,,44.587082,26.070766,,,,
3122,207,Batistei,,44.440464,26.108669,,,,
7313,2070,Bd. Apicultorilor,,44.502193,26.05921,,,,
3820,2071,Amazoanei,,44.425875,26.136077,,,,
7316,2073,Bd. Apicultorilor,,44.501988,26.059935,,,,
7317,2077,Piata Romana,,44.445586,26.097548,,,,
3124,208,Bd. Carol I,,44.437172,26.110039,,,,
7328,2085,Teiului,,44.395648,26.037364,,,,
7268,2090,Teiului,,44.39568,26.037812,,,,
7271,2091,Soseaua Magurele,,44.398276,26.048667,,,,
7269,2092,Venus,,44.393128,26.047984,,,,
7281,2093,Soseaua Vartejului,,44.389219,26.047483,,,,
7280,2094,Curtea de Arges,,44.381508,26.046391,,,,
7283,2095,I.A.I. Magurele,,44.376016,26.046478,,,,
7282,2096,Pasaj C.F.R Magurele,,44.361767,26.038104,,,,
7279,2097,Atomistilor 94,,44.35389,26.03329,,,,
7278,2098,Facultatea de Fizica,,44.351012,26.032367,,,,
3438,21,Nicolae Canea,,44.475511,26.158623,,,,
5995,2100,Ferma Odai,,44.527346,26.04319,,,,
3735,2101,Calea Plevnei,,44.440103,26.072539,,,,
6013,2102,Magurele Facultatea de Fizica,,44.35225,26.032445,,,,
6011,2103,Atomistilor 45,,44.354797,26.033935,,,,
6012,2104,Pasaj C.F.R Magurele,,44.362134,26.038414,,,,
6017,2105,I.A.I. Magurele,,44.37594,26.0465,,,,
6018,2106,Curtea de Arges,,44.381864,26.046552,,,,
6015,2107,Soseaua Vartejului,,44.38823,26.047396,,,,
6016,2108,Venus,,44.393733,26.048159,,,,
6007,2110,Piata Sudului,,44.39242,26.122643,,,,
6025,2112,Cartier Aparatorii Patriei,,44.380602,26.134082,,,,
6028,2116,Faur,,44.434481,26.183185,,,,
6030,2119,Scut - Gherase,,44.457067,26.139052,,,,
3154,212,Buzesti,,44.445833,26.081335,,,,
6021,2122,A.C.R.,,44.349371,26.029626,,,,
6045,2123,Dumitru Slugeru,,44.453475,26.142457,,,,
6047,2124,Complex Comercial,,44.450868,26.146825,,,,
8699,2130,Bobesti,,44.386889,26.230674,,,,
8702,2132,Primaria Glina,,44.386072,26.246433,,,,
8703,2133,Dispensar,,44.384985,26.253073,,,,
6062,2134,Magazin,,44.352517,26.015369,,,,
8695,2135,Glina,,44.384752,26.255448,,,,
8704,2136,Dispensar,,44.385215,26.251409,,,,
8705,2137,Primaria Glina,,44.386155,26.246555,,,,
3786,2139,Spitalul Fundeni,,44.466795,26.156233,,,,
6050,2141,Scoala Generala 145,,44.455991,26.142668,,,,
6048,2142,Scoala Generala,,44.352928,26.000066,,,,
6053,2143,Sat Odai,,44.532754,26.06109,,,,
6067,2145,I. C. S. I. M.,,44.529499,26.04832,,,,
6066,2146,Ferma Odai,,44.527006,26.042071,,,,
6069,2147,Cimitirul Straulesti,,44.520233,26.025643,,,,
6070,2149,Cimitirul Straulesti,,44.519866,26.025083,,,,
7258,215,Aurel Vlaicu,,44.478932,26.101757,,,,
6074,2151,I. C. S. I. M.,,44.530042,26.051009,,,,
6075,2153,Sat Odai,,44.532434,26.060404,,,,
6076,2154,Scoala Generala,,44.353369,26.000982,,,,
6077,2155,Scut - Gherase,,44.457947,26.138182,,,,
6084,2156,Isovolta,,44.415413,26.217885,,,,
6083,2157,Fabrica de Oxigen,,44.421251,26.219113,,,,
6080,2158,I.C.M.E. Poarta 1,,44.423539,26.219883,,,,
6078,2159,Soseaua Industriilor,,44.426308,26.220911,,,,
6091,2160,C.F.R. Catelu,,44.411451,26.218261,,,,
3346,2161,Dumbrava Noua,,44.411997,26.168044,,,,
3347,2162,Dumbrava Noua,,44.412206,26.167405,,,,
3810,2164,Resita,,44.388305,26.104383,,,,
3349,2165,Postavarului,,44.417978,26.176122,,,,
6096,2167,Magazin,,44.352532,26.015141,,,,
6102,2172,C.F.R.,,44.391313,26.086373,,,,
6103,2173,Toporasi,,44.389683,26.091396,,,,
3359,2177,Postavarului,,44.417308,26.176098,,,,
6105,2178,Spitalul de Copii,,44.389038,26.109828,,,,
6104,2179,Spitalul de Copii,,44.389485,26.109948,,,,
3851,2183,Izvorul Rece,,44.388352,26.105467,,,,
6107,2187,A.C.R.,,44.34825,26.028276,,,,
7259,219,Arcul de Triumf,,44.467616,26.076701,,,,
6119,2192,Cartier Aparatorii Patriei,,44.37938,26.134978,,,,
6117,2193,Bd. Metalurgiei,,44.370304,26.141949,,,,
6125,2198,Bd. Metalurgiei,,44.371478,26.141179,,,,
3410,22,Pasaj Colentina,,44.477483,26.163283,,,,
3185,220,Depoul Bucurestii Noi,,44.477684,26.044953,,,,
6434,2204,Piata Romana,,44.446086,26.097027,,,,
6429,2209,Piata Hurmuzachi,,44.431622,26.137876,,,,
3186,221,Pajurei,,44.480053,26.043094,,,,
6423,2210,Dristorului,,44.42816,26.132095,,,,
6454,2211,Piata Alba Iulia,,44.425767,26.12735,,,,
6453,2212,Traian,,44.426174,26.118413,,,,
6456,2213,Biblioteca Nationala a Romaniei,,44.426499,26.111385,,,,
6455,2214,Bd. I. C. Bratianu,,44.426791,26.105122,,,,
6448,2215,Bd. I. C. Bratianu,,44.426578,26.104882,,,,
8708,2217,Bobesti,,44.386885,26.230942,,,,
3187,222,Bd. Gloriei,,44.483166,26.040664,,,,
6436,2221,Biblioteca Nationala a Romaniei,,44.426238,26.112544,,,,
6516,2222,Traian,,44.425898,26.119888,,,,
6518,2223,Piata Alba Iulia,,44.426694,26.129973,,,,
6514,2224,Dristorului,,44.428616,26.133256,,,,
6515,2225,Piata Hurmuzachi,,44.431349,26.137766,,,,
6520,2229,Pod Hasdeu,,44.433948,26.083513,,,,
6511,2230,Opera Nationala,,44.43414,26.080713,,,,
6509,2231,Bd. Constantin Brancoveanu,,44.396885,26.109752,,,,
6538,2233,Piata Titan,,44.41334,26.162939,,,,
6540,2234,Ilioara,,44.413968,26.156411,,,,
6542,2235,Ilioara,,44.413495,26.157383,,,,
6545,2236,Piata Titan,,44.414269,26.164476,,,,
6546,2239,C.F.R. Progresul,,44.369772,26.089232,,,,
6533,2240,Soseaua Garii Catelu,,44.425402,26.220765,,,,
6531,2241,Piata Iancului,,44.441386,26.135631,,,,
6536,2242,Pod Hasdeu,,44.433364,26.084858,,,,
6488,2244,Fabrica de Paine,,44.40508,26.074016,,,,
6486,2247,Lucian Blaga,,44.425708,26.123812,,,,
6484,2248,Sarafinesti,,44.442867,26.147254,,,,
8764,2250,11 Iunie,,44.314302,26.018361,,,,
6497,2257,Bufet,,44.34334,26.026922,,,,
6498,2258,Dumitrana,,44.327439,26.003175,,,,
6496,2259,Scoala Generala,,44.322905,25.9978,,,,
6495,2260,Scoala Generala,,44.322792,25.997752,,,,
6494,2261,Dumitrana,,44.327278,26.003017,,,,
6492,2262,Bufet,,44.343628,26.027142,,,,
6490,2263,A.C.R.,,44.347898,26.029017,,,,
8774,2265,11 Iunie,,44.314559,26.018598,,,,
6572,2266,Foradex,,44.488896,26.065316,,,,
6571,2267,Foradex,,44.48836,26.065544,,,,
6574,2268,Piata Rahova,,44.406743,26.064842,,,,
6573,2269,Petre Ispirescu,,44.410345,26.069922,,,,
6588,2277,Piata Romana,,44.445345,26.097654,,,,
6593,2281,S.C. Ispas Marin,,44.324213,25.999043,,,,
6592,2282,S.C. Ispas Marin,,44.324251,25.999247,,,,
6553,2290,Piata Sf. Vineri,,44.429476,26.107362,,,,
6551,2292,Piata Unirii,,44.428934,26.104559,,,,
3796,2294,Aliorului,,44.379205,26.118185,,,,
3411,23,Pasaj Colentina,,44.477665,26.163251,,,,
3450,2302,Pod Mihai Bravu,,44.409578,26.123248,,,,
3446,2303,Gheorghe Petrascu,,44.428258,26.138667,,,,
3448,2305,Mieilor,,44.435303,26.137237,,,,
3449,2306,Gheorghe Petrascu,,44.428101,26.138564,,,,
3445,2309,Bd. Iuliu Maniu,,44.435048,26.054427,,,,
3433,2310,Pod Grozavesti,,44.44262,26.06052,,,,
3435,2311,Calea Plevnei,,44.447229,26.063138,,,,
3430,2312,Pod Grozavesti,,44.442366,26.060353,,,,
3432,2313,Bd. Iuliu Maniu,,44.43476,26.054364,,,,
3426,2314,Bd. Timisoara,,44.429072,26.054458,,,,
3428,2315,Piata Danny Huwe,,44.428829,26.06185,,,,
3623,232,Pajurei,,44.480306,26.042828,,,,
12076,2328,Apicola,,44.492358,26.088057,,,,
12217,2329,Aeroport Baneasa,,44.495155,26.080808,,,,
3624,233,Depoul Bucurestii Noi,,44.477194,26.045282,,,,
12077,2331,Apicola,,44.492543,26.087753,,,,
7630,234,Dezrobirii,,44.440236,26.02604,,,,
6693,2341,Teatrul Metropolis,,44.448392,26.107394,,,,
3528,2343,Hristo Botev,,44.435316,26.108577,,,,
3525,2344,Romancierilor,,44.426584,26.02329,,,,
3533,2345,Frigocom,,44.426095,26.017367,,,,
3531,2346,Valea Oltului,,44.424755,26.012358,,,,
3524,2349,C.F.R. Cotroceni,,44.42807,26.001469,,,,
7632,235,Teatrul Masca,,44.438554,26.029774,,,,
3542,2350,Brasov,,44.427443,26.034239,,,,
3544,2351,Romancierilor,,44.426593,26.02397,,,,
3545,2352,Frigocom,,44.426124,26.01805,,,,
3548,2353,Valea Oltului,,44.424865,26.012978,,,,
3504,2356,C.F.R. Cotroceni,,44.428663,26.00191,,,,
7631,236,Pasaj Lujerului,,44.436442,26.034311,,,,
3515,2361,Bd. Banu Manta,,44.452611,26.074274,,,,
3517,2362,Dr. Felix,,44.452116,26.080488,,,,
3510,2363,Autogara Filaret,,44.414767,26.091732,,,,
3512,2364,Parcul Carol I,,44.418844,26.096643,,,,
3479,2365,Bd. Dimitrie Cantemir,,44.42105,26.103679,,,,
3476,2366,Pasaj Marasesti,,44.422599,26.10852,,,,
3483,2367,Pasaj Marasesti,,44.422599,26.108418,,,,
3481,2368,Bd. Dimitrie Cantemir,,44.42132,26.10436,,,,
3484,2369,Parcul Carol I,,44.418689,26.09604,,,,
7634,237,Pasaj Lujerului,,44.43696,26.033341,,,,
3495,2370,Autogara Filaret,,44.4146,26.091358,,,,
3501,2375,Faur Poarta 4,,44.427017,26.179599,,,,
3460,2376,Liviu Rebreanu,,44.423921,26.1757,,,,
3458,2377,Barajul Dunarii,,44.424835,26.170818,,,,
3456,2378,Bd. 1 Decembrie 1918,,44.423809,26.176112,,,,
3454,2379,Pictor Harlescu,,44.438114,26.158635,,,,
7633,238,Teatrul Masca,,44.438533,26.02996,,,,
3464,2381,Bd. Banu Manta,,44.452701,26.07395,,,,
3473,2383,Pictor Harlescu,,44.438736,26.158258,,,,
3475,2384,Bd. Basarabia,,44.435179,26.159936,,,,
3469,2385,Sibiu,,44.428253,26.048168,,,,
3610,2387,Sergent Moise,,44.428005,26.039937,,,,
3611,2388,Bd. Uverturii,,44.436916,26.035197,,,,
3609,2389,Piata Crangasi,,44.452362,26.047362,,,,
3594,2390,Pasaj Grant,,44.45373,26.052704,,,,
3592,2391,Turda,,44.456908,26.065932,,,,
3590,2393,Pasaj Grant,,44.456967,26.066001,,,,
3588,2394,Piata Crangasi,,44.452242,26.047117,,,,
3827,2398,Armeneasca,,44.436791,26.109535,,,,
3412,24,Nicolae Canea,,44.47576,26.159014,,,,
3871,2400,Mihai Eminescu,,44.44406,26.11995,,,,
3870,2401,Fainari,,44.447438,26.123161,,,,
3869,2403,Mihai Eminescu,,44.444536,26.12011,,,,
3867,2404,Bd. Carol I,,44.438755,26.114888,,,,
3866,2405,Armeneasca,,44.43707,26.110581,,,,
3873,2409,Calea Dorobantilor,,44.446874,26.099778,,,,
6644,2412,Petru Rares,,44.45184,26.072969,,,,
6647,2418,Precizia,,44.497326,26.029504,,,,
6648,2419,Bd. Gloriei,,44.482965,26.040646,,,,
7609,242,Dezrobirii,,44.440894,26.024849,,,,
6233,2420,Precizia,,44.497979,26.029252,,,,
3408,2422,Nerva Traian,,44.423918,26.118038,,,,
3409,2423,Nerva Traian,,44.423947,26.119194,,,,
3404,2424,Pod Ciurel,,44.445998,26.03844,,,,
3405,2425,Pod Ciurel,,44.445719,26.038186,,,,
7608,243,Bd. Chisinau,,44.442028,26.157221,,,,
6244,2430,Soldat Radu Tina,,44.427721,26.212282,,,,
6219,2431,Bucur,,44.428764,26.207628,,,,
6221,2432,Scoala Generala 55,,44.429992,26.202137,,,,
6216,2433,Complex Comercial,,44.431082,26.197343,,,,
6212,2435,Meiului,,44.431441,26.195271,,,,
6215,2436,Complex Comercial,,44.430887,26.197718,,,,
6208,2437,Scoala Generala 55,,44.429837,26.202444,,,,
6210,2438,Bucur,,44.428591,26.207931,,,,
6223,2439,Soldat Radu Tina,,44.427534,26.212688,,,,
7607,244,Cimitirul Militari,,44.442171,26.021999,,,,
6228,2441,I. C. M. E. Poarta 1,,44.423117,26.219638,,,,
6274,2445,Pictor Harlescu,,44.43797,26.158548,,,,
6275,2446,Sold. Mihale Stelian,,44.415946,26.166884,,,,
8501,2450,Scoala Nr 2,,44.623211,26.110425,,,,
6291,2451,Bd. Ion Mihalache,,44.455839,26.079552,,,,
6255,2457,Podul Grozavesti,,44.440963,26.059547,,,,
6254,2459,Calea Plevnei,,44.448232,26.06554,,,,
6270,2460,Spitalul Clinic Filantropia,,44.453344,26.083067,,,,
6319,2464,Calea Giulesti,,44.447237,26.062019,,,,
6318,2465,Bd. Regiei,,44.446205,26.060328,,,,
6321,2466,Podul Grozavesti,,44.442132,26.060163,,,,
6317,2469,Piata Eroii Revolutiei,,44.404592,26.096317,,,,
7610,247,Aragonitului,,44.441433,26.017836,,,,
3757,2472,Aliorului,,44.378675,26.118362,,,,
6299,2476,Pipera,,44.484369,26.110556,,,,
6297,2478,Turnu Magurele,,44.377215,26.110034,,,,
6302,2484,Mircea Voda,,44.426991,26.11208,,,,
6304,2485,A.S.E.,,44.447601,26.099356,,,,
6370,2486,Scoala Iancului,,44.439427,26.123722,,,,
6372,2488,Vatra Luminoasa,,44.436876,26.136483,,,,
6371,2489,Gheorghe Petrascu,,44.428394,26.138528,,,,
6373,2490,Baba Novac,,44.425529,26.137351,,,,
6375,2492,Gheorghe Petrascu,,44.427984,26.138679,,,,
6377,2493,Maior Coravu,,44.435799,26.137303,,,,
6347,2499,Bd. Banu Manta,,44.455929,26.079303,,,,
3413,25,Cornisor,,44.473516,26.154626,,,,
6126,2500,Matei Basarab,,44.43107,26.111552,,,,
6131,2501,Piata Sf. Vineri,,44.429946,26.106365,,,,
6124,2505,Soseaua Bucuresti-Ploiesti 107,,44.524508,26.072228,,,,
3868,2506,Lujerului,,44.434341,26.033749,,,,
3373,2507,Bd. Expozitiei,,44.473408,26.059777,,,,
6118,2508,Biserica Chiajna,,44.461546,25.976779,,,,
3872,2509,Ciceu,,44.378112,26.123825,,,,
3916,251,Carol Davila,,44.437625,26.068928,,,,
6142,2511,Itcani,,44.465402,26.14944,,,,
3389,2523,Grivita,,44.473152,26.053984,,,,
6176,2524,Liceul Teoretic Radu Popescu,,44.381592,26.174305,,,,
6174,2525,Gheorghe Costa-Foru,,44.380962,26.179389,,,,
6172,2526,Taberei,,44.379763,26.188601,,,,
6170,2527,Posada,,44.378178,26.199606,,,,
6169,2528,Domnita Balasa,,44.377247,26.206156,,,,
6168,2529,Fortului,,44.376773,26.210742,,,,
3650,253,Muzeul Bacovia,,44.397751,26.096038,,,,
6203,2530,C.F.R. Centura,,44.377032,26.215221,,,,
6206,2532,C.F.R. Centura,,44.377035,26.214945,,,,
6205,2533,Fortului,,44.376847,26.210524,,,,
6199,2534,Domnita Balasa,,44.377341,26.2059,,,,
6198,2535,Posada,,44.378167,26.2001,,,,
6201,2536,Taberei,,44.379855,26.188466,,,,
6200,2537,Gheorghe Costa-Foru,,44.380973,26.179699,,,,
6197,2538,Liceul Teoretic Radu Popescu,,44.381726,26.173942,,,,
3648,254,Piata Progresul,,44.393226,26.093963,,,,
7548,2541,Condax,,44.476773,26.006387,,,,
7549,2543,Intrarea Caramidariei,,44.467146,26.010769,,,,
7551,2544,Scoala,,44.469912,26.00321,,,,
7542,2545,Poiana Lacului,,44.467505,26.016249,,,,
7545,2547,Condax,,44.477007,26.006162,,,,
3538,2549,Grivita,,44.472784,26.055674,,,,
3652,255,Toporasi,,44.389956,26.092457,,,,
8352,2555,Stupinei,,44.621417,26.101667,,,,
3513,2556,Bd. Ion Mihalache,,44.471523,26.051841,,,,
7532,2557,Mihai Viteazul,,44.489855,26.026546,,,,
7530,2558,Spatarul Preda,,44.414076,26.086015,,,,
3651,256,Drumul Gazarului,,44.386465,26.09215,,,,
7518,2562,Piata Eroii Revolutiei,,44.405873,26.095288,,,,
7511,2563,Stefan Hepites,,44.408642,26.090823,,,,
7513,2564,Garleni,,44.415561,26.048288,,,,
7515,2565,Garleni,,44.415512,26.049283,,,,
7516,2567,Bd. Ceahlau,,44.453687,26.051289,,,,
7517,2569,Pod Ciurel,,44.446318,26.038746,,,,
3646,257,Cimitirul Evreiesc,,44.382627,26.092305,,,,
7507,2570,Bd. Ceahlau,,44.453638,26.052968,,,,
7508,2573,Mihai Viteazul,,44.489242,26.026013,,,,
3737,2575,Facultatea de Drept,,44.434464,26.080721,,,,
7502,2579,C.F.R. Cotroceni,,44.427592,26.001158,,,,
3727,2580,Autogara Militari,,44.43372,26.007061,,,,
7492,2581,Rossini,,44.459881,26.106698,,,,
7490,2583,Rossini,,44.460701,26.107163,,,,
3722,2585,Avrig,,44.445412,26.133007,,,,
3647,259,Cimitirul Progresul,,44.381777,26.084542,,,,
7474,2593,Soseaua Colentina,,44.462688,26.13174,,,,
7476,2594,Soseaua Pantelimon,,44.445876,26.135082,,,,
3698,2597,Calea Grivitei,,44.447193,26.078273,,,,
3414,26,Sportului,,44.471312,26.150347,,,,
3626,260,Baciului,,44.383833,26.08142,,,,
7344,2600,Calea Dudesti,,44.419793,26.137979,,,,
7339,2609,Soseaua Pipera,,44.479063,26.093401,,,,
7367,2610,Aurel Vlaicu,,44.479519,26.100585,,,,
7363,2613,Nicolae Caramfil,,44.479583,26.092604,,,,
7361,2618,Soseaua Campia Libertatii,,44.425515,26.149967,,,,
7309,2620,Fizicienilor,,44.414578,26.153735,,,,
7315,2622,Soseaua Campia Libertatii,,44.425491,26.150083,,,,
3816,2624,Grup Scolar Auto,,44.435466,25.976221,,,,
3815,2625,Victoria,,44.434844,25.983442,,,,
3822,2626,Nufarul,,44.434071,25.992566,,,,
3821,2627,Master,,44.433692,25.99828,,,,
3818,2628,Valea Cascadelor,,44.433956,26.004789,,,,
3817,2629,Master,,44.433861,25.997411,,,,
3625,263,Baciului,,44.38404,26.08109,,,,
3828,2630,Nufarul,,44.434294,25.991933,,,,
3831,2631,Victoria,,44.435116,25.982235,,,,
7324,2632,Grup Scolar Auto,,44.43568,25.975614,,,,
3832,2634,Manea Serban,,44.408325,26.053587,,,,
7326,2635,Soseaua Alexandriei,,44.398206,26.048746,,,,
3835,2636,Manea Serban,,44.408896,26.054015,,,,
7329,2637,Cartier Damaroaia,,44.488225,26.051463,,,,
7327,2638,Dridu,,44.485119,26.056728,,,,
7330,2639,Hotel Parc,,44.481545,26.063243,,,,
3638,264,Cimitirul Progresul,,44.381823,26.08442,,,,
7275,2640,Casa Presei,,44.47924,26.069376,,,,
7273,2642,Casa Presei,,44.479554,26.069157,,,,
7272,2643,Hotel Parc,,44.482144,26.062223,,,,
7270,2644,Dridu,,44.485086,26.055391,,,,
10847,2648,Bd. Dr. Marinescu,,44.436136,26.066587,,,,
12121,2649,Piata Eroilor,,44.431857,26.068518,,,,
3637,265,Soseaua Giurgiului,,44.378856,26.091317,,,,
10848,2650,Facultatea de Medicina,,44.43419,26.069441,,,,
8675,2651,Gradinari,,44.443549,25.891003,,,,
8676,2652,Complex Comercial,,44.443489,25.883194,,,,
8677,2653,Camin Cultural,,44.44209,25.875685,,,,
8689,2654,Complex Comercial,,44.443515,25.884693,,,,
8690,2655,Gradinari,,44.443418,25.891476,,,,
3331,2656,Ostasilor,,44.438604,26.084078,,,,
7294,2657,Cartier Damaroaia,,44.488108,26.050389,,,,
7293,2658,Aragonitului,,44.440999,26.017205,,,,
7298,2659,Ferma Avicola,,44.544274,25.970226,,,,
3636,266,Cimitirul Evreiesc,,44.382459,26.092367,,,,
7303,2660,Buciumeni,,44.547,25.965227,,,,
7124,2662,Posta,,44.562571,25.948926,,,,
7126,2663,Oras Buftea,,44.575173,25.941473,,,,
7128,2664,Posta,,44.562508,25.94887,,,,
7130,2665,Drumul Ciocanesti,,44.556947,25.95295,,,,
7117,2666,Buciumeni,,44.546524,25.965792,,,,
7121,2667,Ferma Avicola,,44.543769,25.971455,,,,
10849,2668,Piata Operei,,44.434296,26.076492,,,,
3635,267,Drumul Gazarului,,44.386089,26.092221,,,,
7109,2670,Facultatea de Drept,,44.434393,26.080921,,,,
7113,2671,Drumul Sarii,,44.428049,26.060311,,,,
7111,2672,Piata Danny Huwe,,44.42821,26.060721,,,,
7101,2674,Piata Romana,,44.44619,26.097232,,,,
3730,2675,Ciceu,,44.378189,26.124338,,,,
7097,2676,Piata Timpuri Noi,,44.413708,26.114097,,,,
7090,2678,Piata Timpuri Noi,,44.412034,26.114573,,,,
3634,268,Toporasi,,44.390153,26.092599,,,,
3462,2683,Soseaua Viilor,,44.411062,26.088486,,,,
3781,2685,Soseaua Mihai Bravu,,44.407937,26.120038,,,,
7167,2687,Artistilor,,44.295199,26.06111,,,,
7168,2688,1 Decembrie,,44.284055,26.053679,,,,
3633,269,Piata Progresul,,44.392872,26.093859,,,,
7685,2695,1 Decembrie,,44.284282,26.053696,,,,
7151,2696,Artistilor,,44.295728,26.061367,,,,
3415,27,Cartier Colentina,,44.468484,26.142367,,,,
3566,270,Muzeul Bacovia,,44.397355,26.095923,,,,
6959,2703,Dumbraveni,,44.376247,25.982758,,,,
6960,2704,Primaria Bragadiru,,44.36879,25.973696,,,,
8597,2705,Soseaua Clinceni,,44.364134,25.97044,,,,
8596,2707,Primaria Cornetu,,44.343151,25.943942,,,,
6978,2710,Primaria Bragadiru,,44.368652,25.97371,,,,
6979,2711,Dumbraveni,,44.375654,25.982288,,,,
6981,2713,Pod Centura,,44.38114,25.988143,,,,
7579,272,Doi Cocosi,,44.507493,26.02467,,,,
10697,2726,Biserica Sintesti,,44.30599,26.11544,,,,
7585,273,Buzias,,44.510323,26.021423,,,,
10704,2732,Biserica Cretesti,,44.277253,26.134745,,,,
7583,274,Bd. Petrila,,44.513253,26.018018,,,,
6890,2747,C.F.R.,,44.391055,26.087059,,,,
7586,275,Valea Argesului,,44.416005,26.016416,,,,
6918,2752,Pod Vitan,,44.404604,26.142267,,,,
10717,2758,Biserica Cretesti,,44.27752,26.134769,,,,
7587,276,C.F.R. Centura,,44.514913,26.016074,,,,
10724,2764,Biserica Sintesti,,44.306421,26.115268,,,,
3808,277,Turnu Magurele,,44.377008,26.119983,,,,
8626,2771,Morii,,44.332488,26.070995,,,,
3845,2774,Metro Militari,,44.43447,25.987863,,,,
3843,2775,Metro Militari,,44.434743,25.986463,,,,
6939,2777,Universitatea Nationala de Aparare,,44.428506,26.064632,,,,
6941,2778,Spitalul Dr. Th. Burghele,,44.424287,26.071758,,,,
6940,2779,Spitalul Dr. Burghele,,44.424762,26.071679,,,,
6942,2780,Dr. Mihai Ciuca,,44.426536,26.068358,,,,
6943,2781,Universitatea Nationala de Aparare,,44.430282,26.062194,,,,
3824,2786,Palatul National al Copiilor,,44.408504,26.116031,,,,
6793,2787,Neatarnarii,,44.485634,26.04412,,,,
3572,2791,Universitatea Romano-Americana,,44.474364,26.0663,,,,
3573,2792,Universitatea Romano-Americana,,44.474478,26.066827,,,,
6816,2795,Piata Presei,,44.475491,26.07233,,,,
6812,2797,Piata Crangasi,,44.451024,26.047217,,,,
6810,2798,A.N.E.F.S.,,44.438938,26.06956,,,,
6809,2799,Complex Grozavesti,,44.442983,26.062497,,,,
3416,28,Raul Colentina,,44.467058,26.139256,,,,
3551,280,Piata Ferentari,,44.398613,26.084819,,,,
6618,2800,Complex Regie,,44.444829,26.052836,,,,
6621,2801,G-ral Petre Popovat,,44.445727,26.047984,,,,
6639,2805,Spitalul Universitar,,44.436842,26.072511,,,,
6630,2806,Piata Presei,,44.478639,26.0716,,,,
6634,2809,Piata de Gros,,44.360979,26.130212,,,,
3549,281,Armistitiului,,44.403044,26.081757,,,,
3557,282,Cibinului,,44.406214,26.079748,,,,
6468,2821,Dr. Mihai Ciuca,,44.426024,26.068742,,,,
3205,2825,Toamnei,,44.448849,26.116025,,,,
3202,2826,Toamnei,,44.449259,26.116504,,,,
3199,2827,Dr. Felix,,44.448983,26.081806,,,,
3555,283,Soseaua Salaj,,44.408074,26.078222,,,,
6461,2832,Frigocom,,44.426,26.017722,,,,
6463,2833,Brasov,,44.427375,26.034425,,,,
6462,2834,Sergent Moise,,44.427918,26.041936,,,,
6459,2835,Sibiu,,44.428249,26.049341,,,,
6458,2836,Teatrul Dramaturgilor Romani,,44.445621,26.082216,,,,
3693,2837,Mecet,,44.437791,26.127816,,,,
3690,2838,Mecet,,44.437667,26.128088,,,,
6452,2841,Bd. Dacia,,44.444697,26.088815,,,,
6449,2843,Piata Danny Huwe,,44.428888,26.05957,,,,
6445,2847,Sibiu,,44.428398,26.048098,,,,
6444,2848,Sergent Moise,,44.428076,26.040073,,,,
6443,2849,Brasov,,44.42728,26.031096,,,,
6435,2850,Frigocom,,44.426165,26.017036,,,,
7561,286,Soseaua Bucuresti-Ploiesti,,44.494305,26.080139,,,,
6541,2860,Romancierilor,,44.426601,26.024988,,,,
6543,2861,Romancierilor,,44.426718,26.023866,,,,
3783,2863,Gara de Nord,,44.448284,26.074188,,,,
7562,287,Piata Floreasca,,44.460083,26.100882,,,,
6521,2878,Spitalul Dr. Marinescu,,44.385965,26.128677,,,,
6522,2879,Spitalul Dr. Marinescu,,44.386632,26.12829,,,,
6493,2891,Upetrolam,,44.358393,26.151086,,,,
6491,2892,Upetrolam,,44.358478,26.15117,,,,
6487,2895,Soseaua Salaj,,44.393405,26.066754,,,,
6483,2898,Zefirul,,44.442423,26.143148,,,,
3417,29,Doamna Ghica,,44.462382,26.133229,,,,
3598,290,Brasov,,44.414809,26.034983,,,,
6135,2905,Complex Comercial,,44.42695,26.029376,,,,
6136,2906,Complex Comercial,,44.427062,26.028425,,,,
6140,2909,Jandarmeriei,,44.509003,26.061538,,,,
6115,2910,Scoala Generala 309,,44.431717,26.01897,,,,
6116,2911,Scoala Generala 309,,44.431261,26.018455,,,,
3859,2912,Liceul Nichita Stanescu,,44.433336,26.168422,,,,
3862,2913,Liceul Nichita Stanescu,,44.432857,26.168132,,,,
3370,2914,Luica,,44.378384,26.091651,,,,
3371,2915,Luica,,44.379197,26.091811,,,,
6111,2919,Atlasului,,44.506411,26.059803,,,,
6189,2921,Oaspetilor,,44.50295,26.057624,,,,
6182,2923,Atlasului,,44.506583,26.058546,,,,
3392,2925,Gelcap,,44.482262,26.124705,,,,
3393,2926,Gelcap,,44.482192,26.125028,,,,
7682,2929,Piata Sf. Gheorghe,,44.432841,26.105651,,,,
3596,293,Bd. Timisoara,,44.42699,26.033269,,,,
3388,2930,Piata Buzesti,,44.448082,26.082468,,,,
3903,2933,Gradina Cismigiu,,44.434706,26.093778,,,,
3897,2934,Gradina Cismigiu,,44.434623,26.094407,,,,
6157,2935,Catanoaia,,44.426677,26.216497,,,,
6153,2936,Catanoaia,,44.426867,26.216092,,,,
6155,2937,Piata Gorjului,,44.433944,26.019839,,,,
6150,2938,Gara Progresul,,44.366021,26.090856,,,,
6151,2939,Bd. Nicolae Balcescu,,44.440534,26.099014,,,,
3675,2940,Vasile Parvan,,44.436243,26.083949,,,,
5964,2943,Semanatoarea,,44.445299,26.047347,,,,
5969,2945,Pod Grozavesti,,44.442648,26.061835,,,,
5939,2951,Piata Arsenalului,,44.42482,26.076523,,,,
5941,2954,Electronica,,44.448728,26.147163,,,,
5940,2955,Electronica,,44.448621,26.147598,,,,
5944,2956,Pasaj Colentina,,44.478417,26.163918,,,,
5943,2957,Zefirul,,44.442373,26.144173,,,,
3597,296,Bd. Timisoara,,44.426793,26.033269,,,,
7746,2961,Primaria Balotesti,,44.626292,26.069323,,,,
8605,2962,Primaria Balotesti,,44.626582,26.069128,,,,
6006,2968,Piata Aparatorii Patriei,,44.37871,26.135643,,,,
3697,2973,Trambitei,,44.411181,26.055006,,,,
5990,2978,Teiul Doamnei,,44.463862,26.126049,,,,
5989,2979,Grigore Ionescu,,44.459931,26.126832,,,,
5975,2980,Teiul Doamnei,,44.458073,26.128373,,,,
6026,2981,Grigore Ionescu,,44.460682,26.126748,,,,
3279,2982,Barajul Rovinari,,44.430203,26.173482,,,,
3275,2983,Barajul Iezeru,,44.432534,26.172651,,,,
3276,2984,Bd. Basarabia,,44.435987,26.172881,,,,
3282,2985,Barajul Iezeru,,44.43288,26.172476,,,,
3283,2986,Barajul Rovinari,,44.430348,26.173366,,,,
6023,2989,Petre Ispirescu,,44.418588,26.059938,,,,
3733,2993,Soseaua Nicolae Titulescu,,44.450255,26.069515,,,,
3734,2994,Gara de Nord,,44.448071,26.074272,,,,
3736,2995,Nicolae Titulescu,,44.450741,26.068975,,,,
3738,2996,Pasaj Grant,,44.456291,26.061798,,,,
3129,3,Penes Curcanul,,44.412094,26.1279,,,,
3418,30,Teiul Doamnei,,44.45742,26.130334,,,,
3244,300,Stefan Hepites,,44.408411,26.090968,,,,
3344,3001,Hristo Botev,,44.433941,26.107598,,,,
3342,3002,Bd. Carol I,,44.438534,26.114926,,,,
3324,3003,Mihai Eminescu,,44.443312,26.119142,,,,
3325,3004,Bucur Obor,,44.450537,26.125453,,,,
3322,3005,Bucur Obor,,44.450224,26.125149,,,,
3323,3006,Mihai Eminescu,,44.443805,26.11951,,,,
3328,3007,Bd. Carol I,,44.438024,26.114524,,,,
3792,3009,Stoica Ludescu,,44.453663,26.06441,,,,
3795,3010,Stoica Ludescu,,44.452659,26.065686,,,,
6906,3011,Parcul Bazilescu,,44.488548,26.036611,,,,
6903,3012,Parcul Bazilescu,,44.487733,26.036953,,,,
3363,3014,Soseaua Crangasi,,44.453691,26.052104,,,,
6938,3018,Bd. Ghencea,,44.415018,26.034775,,,,
3352,3028,Zetarilor,,44.386278,26.078242,,,,
3356,3031,Piata Titan,,44.413253,26.162567,,,,
3355,3032,Piata Titan,,44.412867,26.164754,,,,
3377,3036,Univ. Crestina Dimitrie Cantemir,,44.416532,26.11281,,,,
6977,3039,Univ. Crestina Dimitrie Cantemir,,44.416449,26.113784,,,,
3252,304,Piata Sudului,,44.393576,26.12172,,,,
3384,3041,Universitatea Hyperion,,44.432376,26.125944,,,,
3385,3042,Universitatea Hyperion,,44.432393,26.125588,,,,
3386,3043,Faur Poarta 4,,44.426907,26.178984,,,,
3387,3044,Faur Poarta 4,,44.426622,26.179002,,,,
6994,3046,Combinatul Fondului Plastic,,44.483433,26.064082,,,,
6957,3047,Combinatul Fondului Plastic,,44.483284,26.063323,,,,
6956,3048,Penitenciarul Rahova,,44.39418,26.032069,,,,
6955,3049,Penitenciarul Rahova,,44.394295,26.032816,,,,
6879,305,Sala Lucian Grigorescu,,44.465199,26.095876,,,,
6976,3050,Nasaud,,44.409138,26.077085,,,,
6974,3052,Piata Gorjului,,44.434148,26.019537,,,,
9368,3055,Erou Iancu Nicolae,,44.513513,26.137998,,,,
3260,307,Soseaua Salaj,,44.408463,26.0778,,,,
3258,308,Cibinului,,44.406357,26.079608,,,,
7041,3083,City Center,,44.480489,26.06667,,,,
7037,3084,Ancuta Baneasa,,44.469764,26.104021,,,,
7034,3085,Ancuta Baneasa,,44.470312,26.104439,,,,
3659,3086,Cimitirul Sfanta Vineri,,44.458476,26.060012,,,,
3656,3087,Caraiman,,44.460263,26.058633,,,,
3264,309,Armistitiului,,44.40327,26.081547,,,,
7059,3097,Fabrica de Oxigen,,44.420798,26.218876,,,,
3419,31,Ziduri Mosi,,44.454064,26.127963,,,,
3159,310,Piata Ferentari,,44.398616,26.084781,,,,
3242,3100,Dr. Constantin Istrati,,44.411012,26.089178,,,,
7267,3101,Isovolta,,44.415567,26.217622,,,,
7266,3104,Fagului,,44.374139,26.177405,,,,
7265,3105,Fagului,,44.374604,26.176938,,,,
7264,3106,Calea Giulesti,,44.448149,26.064321,,,,
7262,3111,Teatrul Masca,,44.485341,26.038825,,,,
7263,3112,Teatrul Masca,,44.486183,26.038417,,,,
7322,3114,Fundatia Aisteda,,44.405619,26.136025,,,,
7323,3115,Piata Clabucet,,44.471533,26.050043,,,,
7325,3116,Piscul Rachitei,,44.406848,26.130841,,,,
3361,3117,Soseaua Mihai Bravu,,44.419919,26.137915,,,,
7311,3124,Piata Ferentarilor,,44.397408,26.08487,,,,
3814,3125,Biserica Delea Veche,,44.433885,26.127356,,,,
3811,3126,Biserica Delea Veche,,44.433553,26.127719,,,,
7312,3128,Mezes,,44.485596,26.02197,,,,
7314,3129,Mezes,,44.48457,26.024165,,,,
3333,3135,Univ. Crestina Dimitrie Cantemir,,44.416413,26.112509,,,,
7295,3136,Ghidigeni,,44.41263,26.022575,,,,
7296,3137,Soseaua Chitila,,44.476848,26.044096,,,,
7297,3138,Bd. Bucurestii Noi,,44.476793,26.043547,,,,
7302,3142,Slatina,,44.38411,26.046758,,,,
7300,3143,Slatina,,44.384982,26.046975,,,,
7304,3145,Brodina,,44.498155,26.07287,,,,
7276,3147,Uzitex,,44.406299,26.133191,,,,
6873,315,Comisani,,44.37562,26.137898,,,,
3799,3154,Clabucet,,44.470478,26.050354,,,,
3798,3156,Lainici,,44.465596,26.05426,,,,
3918,3158,Griro,,44.461062,26.057765,,,,
3921,3159,Caraiman,,44.459252,26.059179,,,,
3931,3160,Cimitirul Sfanta Vineri,,44.457532,26.060519,,,,
3932,3161,Pasaj Grant,,44.455755,26.061928,,,,
3933,3164,Griro,,44.461996,26.057295,,,,
3935,3166,Lainici,,44.466355,26.053877,,,,
3905,3168,Clabucet,,44.470605,26.050561,,,,
7383,3170,Clabucet,,44.470641,26.051855,,,,
6871,318,Depozit Pajura,,44.484246,26.047631,,,,
7368,3182,Brazi,,44.51806,26.241851,,,,
7369,3183,Brazi,,44.517646,26.240831,,,,
7370,3184,Primaria Afumati,,44.522701,26.248517,,,,
7371,3185,Primaria Afumati,,44.523061,26.24882,,,,
6872,319,Bd. Bucurestii Noi,,44.483633,26.04158,,,,
3196,320,Piata Sudului,,44.393792,26.121274,,,,
3197,321,Husi,,44.396016,26.115527,,,,
6092,3211,Scoala Olteni,,44.393156,25.948324,,,,
6097,3212,Cimitir Caltuna,,44.389198,25.934065,,,,
6095,3215,Cimitir Caltuna,,44.389154,25.934112,,,,
6094,3216,Scoala Olteni,,44.3933,25.948587,,,,
3198,322,Bd. Constantin Brancoveanu,,44.397984,26.110405,,,,
3192,323,Opris Ilie,,44.400046,26.104613,,,,
3850,3233,R.A.R.,,44.468033,26.052355,,,,
3732,3234,R.A.R.,,44.468813,26.05198,,,,
3194,324,Cimitirul Serban Voda,,44.401242,26.100115,,,,
6008,3243,Prelungirea Ghencea,,44.412921,26.024469,,,,
6009,3244,Radovanu,,44.466558,26.147195,,,,
6027,3245,F. C. Juventus,,44.467594,26.145624,,,,
8395,3246,Ferma 4,,44.484172,25.921063,,,,
8394,3247,Ferma 4,,44.4843,25.920724,,,,
6024,3248,Docentilor,,44.46241,26.080451,,,,
3745,3253,Polizu,,44.447202,26.078618,,,,
3247,3254,Turmelor,,44.453143,26.126023,,,,
3300,3256,Papazoglu,,44.421275,26.116647,,,,
3297,3257,Papazoglu,,44.421181,26.116657,,,,
6046,3258,Aeroport Henri Coanda Sosiri,,44.569015,26.077337,,,,
6044,3259,Aeroport Henri Coanda Plecari,,44.571397,26.076683,,,,
6031,3263,Baciului,,44.383652,26.081544,,,,
6032,3264,Cimitirul Progresul,,44.381591,26.084743,,,,
6033,3265,Cimitirul Progresul,,44.382025,26.084189,,,,
6035,3266,Baciului,,44.384384,26.080816,,,,
6065,3267,Zetarilor,,44.385885,26.078837,,,,
6064,3268,Piata Romana,,44.44669,26.095264,,,,
6063,3269,Soseaua Giurgiului,,44.378963,26.091065,,,,
3189,327,Piata Danny Huwe,,44.428603,26.062046,,,,
6055,3270,Cimitirul Magurele,,44.371545,26.04383,,,,
6057,3271,Cimitirul Magurele,,44.371595,26.043912,,,,
9032,3274,Piata Operei,,44.434351,26.074955,,,,
6052,3275,Soseaua Fundeni,,44.465098,26.148156,,,,
6049,3276,Soseaua Nicolae Titulescu,,44.45072,26.070103,,,,
6051,3277,Maior Bacila,,44.46492,26.139525,,,,
5937,3278,Radovanu,,44.462036,26.142446,,,,
5938,3279,Minerilor,,44.463231,26.146236,,,,
3190,328,Calea Rahovei,,44.416363,26.077728,,,,
5923,3280,Rascoala 1907,,44.463105,26.143974,,,,
5927,3281,Radovanu,,44.462492,26.142038,,,,
5926,3282,Maior Bacila,,44.465283,26.13921,,,,
5928,3284,Bd. B.P.Hasdeu,,44.430906,26.083971,,,,
5933,3285,Prestige,,44.380517,26.155521,,,,
5932,3286,Prestige,,44.380677,26.15483,,,,
5936,3287,Doina,,44.411365,26.07858,,,,
5935,3288,Soseaua Progresului,,44.414424,26.080955,,,,
3191,329,Spatarul Preda,,44.411333,26.083719,,,,
5952,3290,Doina,,44.41072,26.077945,,,,
5950,3291,Soseaua Progresului,,44.413658,26.080249,,,,
5957,3292,Soseaua Viilor,,44.416272,26.083133,,,,
5956,3293,Calea Victoriei,,44.445657,26.091698,,,,
5954,3294,Calea Victoriei,,44.445716,26.091475,,,,
3396,33,Bd. Ferdinand,,44.446411,26.134414,,,,
3097,330,Calea 13 Septembrie,,44.422852,26.069307,,,,
6624,3300,Piata Baneasa,,44.493863,26.083724,,,,
6628,3302,Muzeul Satului,,44.47275,26.07557,,,,
6626,3303,Aeroport Henri Coanda Plecari,,44.571393,26.076683,,,,
3376,3304,Compasului,,44.427004,26.02908,,,,
3375,3305,Compasului,,44.427073,26.029279,,,,
3378,3306,Republica,,44.433879,26.185462,,,,
6619,3307,Carrefour Militari,,44.43784,25.958591,,,,
6635,3309,Deal,,44.353764,25.996458,,,,
3099,331,Inox,,44.418316,26.075293,,,,
6646,3310,Deal,,44.353631,25.996881,,,,
6570,3313,Carrefour Militari,,44.438161,25.958923,,,,
6575,3317,Cartier Rosu,,44.441498,26.003652,,,,
6577,3318,Ghirlandei,,44.43955,26.015383,,,,
6568,3319,Margelelor,,44.440141,26.011891,,,,
6582,3320,Bd. Anul 1864,,44.438068,26.009238,,,,
6581,3321,Catinei,,44.44063,26.005599,,,,
6585,3322,Stramosilor,,44.438851,26.00717,,,,
6586,3323,Margelelor,,44.438345,26.01032,,,,
6587,3324,Ghirlandei,,44.440512,26.013268,,,,
6590,3328,Soseaua Pipera,,44.479965,26.092422,,,,
6594,3330,Putul Olteni,,44.403545,25.959543,,,,
6595,3331,Putul Olteni,,44.403464,25.957677,,,,
6547,3334,Rosia Montana,,44.437934,26.023335,,,,
6549,3341,Tomesti,,44.382758,26.131987,,,,
6548,3342,Tomesti,,44.382132,26.132336,,,,
3805,3344,Cartier Colentina,,44.469592,26.145744,,,,
6562,3346,Coralilor,,44.49345,26.063663,,,,
6559,3348,Coralilor,,44.49335,26.063801,,,,
3807,3351,Balotului,,44.468325,26.153965,,,,
6563,3352,Pecinisca,,44.378363,26.046972,,,,
6564,3353,Pecinisca,,44.378688,26.04696,,,,
6513,3356,City Center,,44.480001,26.067294,,,,
6517,3357,Pod Mihai Bravu,,44.408886,26.123832,,,,
3287,3358,Ghencea,,44.415059,26.045745,,,,
6519,3359,Hala Traian,,44.433408,26.120839,,,,
6504,3360,Aeroport Henri Coanda Sosiri,,44.569422,26.07731,,,,
6506,3361,Matei Basarab,,44.429787,26.120185,,,,
6507,3362,Bd.Unirii,,44.42565,26.118969,,,,
6508,3363,Bd. Octavian Goga,,44.423387,26.11827,,,,
6510,3364,Papazoglu,,44.420767,26.11619,,,,
6512,3365,Scoala Generala 81,,44.419796,26.115391,,,,
6544,3366,Univ. Crestina Dimitrie Cantemir,,44.416032,26.113297,,,,
6539,3368,Univ. Crestina Dimitrie Cantemir,,44.416155,26.11348,,,,
6537,3369,Scoala Generala 81,,44.419455,26.115344,,,,
3101,337,Gara Basarab,,44.449227,26.06723,,,,
6530,3370,Papazoglu,,44.421402,26.116954,,,,
6526,3371,Bd. Octavian Goga,,44.423105,26.118275,,,,
6528,3372,Bd.Unirii,,44.4265,26.11926,,,,
6534,3373,Matei Basarab,,44.431278,26.120741,,,,
6535,3374,Hala Traian,,44.433394,26.121067,,,,
6532,3376,Popa Tatu,,44.443276,26.083311,,,,
6485,3378,Camin U4,,44.444148,26.056524,,,,
6489,3379,Canton Drumuri,,44.404491,25.89766,,,,
6478,3380,Canton Drumuri,,44.4043,25.898171,,,,
6479,3381,Dumitru Brumarescu,,44.366797,26.133147,,,,
6480,3382,Dumitru Brumarescu,,44.366772,26.133216,,,,
6482,3383,Izvorul Oltului,,44.376097,26.106211,,,,
6473,3384,C.E.T. Progresul,,44.372783,26.10491,,,,
6474,3385,Actiunii,,44.370066,26.103094,,,,
6475,3386,Depoul Giurgiului,,44.370798,26.097938,,,,
6477,3387,Tudor Gociu,,44.371752,26.093777,,,,
3273,3388,Piata Sf. Stefan,,44.433298,26.116322,,,,
3270,3389,Ghencea,,44.414685,26.046789,,,,
3243,3390,Ghencea,,44.41511,26.045735,,,,
3265,3391,Piata Presei,,44.475856,26.071731,,,,
3266,3392,Agronomie,,44.471599,26.072391,,,,
3262,3393,Casin,,44.467673,26.074346,,,,
3263,3394,Drumul Taberei,,44.422609,26.034438,,,,
3257,3395,Drumul Taberei,,44.422676,26.034478,,,,
3259,3396,Bd. Ion Mihalache,,44.462548,26.073122,,,,
3255,3397,Casin,,44.468466,26.073988,,,,
3256,3398,Agronomie,,44.471506,26.072478,,,,
3175,3399,Piata Presei,,44.475418,26.072692,,,,
3397,34,Soseaua Mihai Bravu,,44.443492,26.128525,,,,
3345,3400,Bd. Ion Mihalache,,44.461799,26.072141,,,,
3348,3401,Brasov,,44.414553,26.035006,,,,
6923,3402,Anghel Moldoveanu,,44.373092,26.091419,,,,
6924,3405,Casa Academiei,,44.424659,26.085805,,,,
3350,3406,Zizin,,44.41759,26.128905,,,,
3339,3407,Bucuresti-Mall,,44.419832,26.125911,,,,
3338,3408,Bucuresti-Mall,,44.419928,26.125774,,,,
3341,3409,Zizin,,44.417811,26.128517,,,,
6862,342,Calea Vitan,,44.41432,26.133003,,,,
6925,3420,Albotesti,,44.393021,26.027925,,,,
3117,344,Calea 13 Septembrie,,44.422679,26.069476,,,,
6963,3440,Tufanelelor,,44.439668,26.005114,,,,
6962,3441,Mihail Glinka,,44.462001,26.107356,,,,
6986,3443,Tudor Gociu,,44.37119,26.094676,,,,
3889,3444,Soseaua Mihai Bravu,,44.424824,26.136895,,,,
6987,3445,Aviator Popisteanu,,44.469176,26.059295,,,,
6988,3446,Bd. Expozitiei,,44.472725,26.05621,,,,
6989,3447,Traian Vasile,,44.473551,26.061757,,,,
6991,3448,Universitatea Romano-Americana,,44.474273,26.066356,,,,
6992,3449,Universitatea Romano-Americana,,44.474292,26.066005,,,,
3119,345,Inox,,44.41883,26.074591,,,,
6984,3450,Traian Vasile,,44.473518,26.060969,,,,
6982,3451,Bd.Expozitiei,,44.472204,26.055978,,,,
6985,3452,Piata Presei,,44.475284,26.072139,,,,
7008,3454,Piata Presei,,44.475757,26.071969,,,,
7010,3455,Piata Presei,,44.475818,26.072826,,,,
7005,3456,Piata Presei,,44.475701,26.071719,,,,
7003,3459,Ghencea,,44.414931,26.045913,,,,
3121,346,Calea Rahovei,,44.415154,26.079109,,,,
7001,3460,Ghencea,,44.414798,26.046154,,,,
6998,3463,Ghencea,,44.414931,26.046079,,,,
6996,3464,Ghencea,,44.414838,26.046271,,,,
7023,3466,Ghencea,,44.414905,26.045611,,,,
7024,3467,Ghencea,,44.414768,26.045851,,,,
11130,3468,Valea Ialomitei,,44.421394,26.014509,,,,
3930,3469,Tacerii,,44.40226,26.050729,,,,
3123,347,Spatarul Preda,,44.411556,26.083396,,,,
3927,3471,Bd. Timisoara,,44.427996,26.05475,,,,
3394,3473,Piata Presei,,44.475422,26.072464,,,,
7018,3474,Drumul Cooperativei,,44.413575,26.031225,,,,
7017,3475,Drumul Cooperativei,,44.413581,26.029979,,,,
6851,3478,Rocon,,44.365268,26.04009,,,,
6850,3479,Rocon,,44.365556,26.040385,,,,
6855,3484,Subcetate,,44.4829,26.028819,,,,
6856,3485,Marmurei,,44.48258,26.029138,,,,
6863,3487,Ghencea,,44.415236,26.046169,,,,
3112,349,Stefan Hepites,,44.40766,26.092056,,,,
6867,3491,Lujerului,,44.434383,26.033671,,,,
6864,3492,Piata Arsenalului,,44.425055,26.078561,,,,
6866,3493,Casa Academiei,,44.424876,26.0859,,,,
3141,3495,Ghencea,,44.414736,26.046789,,,,
6874,3499,Gheorghe Manu,,44.448081,26.089252,,,,
7140,3502,Dr. Constantin Istrati,,44.412303,26.087968,,,,
7141,3503,Bd. Uverturii,,44.443267,26.020086,,,,
7138,3504,Apusului,,44.443155,26.019226,,,,
7139,3505,Depoul Giurgiului,,44.370614,26.09872,,,,
7144,3506,Pogoanele,,44.370036,26.102985,,,,
3505,3509,Liviu Rebreanu,,44.424572,26.177899,,,,
3642,351,Cimitirul Serban Voda,,44.401767,26.098886,,,,
3354,3511,Liviu Rebreanu,,44.424161,26.177473,,,,
3353,3512,Radox,,44.424232,26.006508,,,,
3358,3513,Radox,,44.424242,26.006059,,,,
10412,3514,Spitalul Fundeni,,44.466799,26.156083,,,,
7319,3515,C.E.T. Progresul,,44.372678,26.105123,,,,
7318,3516,Metro Voluntari,,44.495166,26.197128,,,,
7320,3518,Metro Voluntari,,44.495349,26.197111,,,,
3644,352,Opris Ilie,,44.399857,26.105238,,,,
7332,3524,Valea Ialomitei,,44.420542,26.012956,,,,
7333,3527,Metro Berceni,,44.36559,26.125633,,,,
7335,3528,Metro Berceni,,44.365804,26.125712,,,,
3643,353,Bd. Constantin Brancoveanu,,44.398396,26.109219,,,,
3794,3535,Imprimeria Nationala,,44.433882,26.000885,,,,
3793,3536,Imprimeria Nationala,,44.43373,26.001631,,,,
7284,3537,Facultatea de Filosofie,,44.440843,26.06625,,,,
3645,354,Husi,,44.396234,26.11489,,,,
7384,3558,Strandul Tei,,44.47151,26.124668,,,,
7381,3559,Strandul Tei,,44.471661,26.124727,,,,
3938,3568,Piata Spaniei,,44.445938,26.108812,,,,
3941,3569,Piata Spaniei,,44.446042,26.108668,,,,
7386,3570,Dimitrie Grozdea,,44.449738,26.148271,,,,
7389,3571,Dimitrie Grozdea,,44.450207,26.147857,,,,
7359,3591,Cartierul Nou,,44.330745,26.172306,,,,
7357,3592,Cartierul Nou,,44.331312,26.171948,,,,
3395,36,Vatra Luminoasa,,44.437924,26.136163,,,,
7240,360,Comisani,,44.375558,26.13803,,,,
7524,3602,Peris,,44.475936,26.151446,,,,
7504,3618,Albotesti,,44.393274,26.029131,,,,
6127,3636,Sat Dumitrana,,44.324739,25.994097,,,,
6128,3637,Sat Dumitrana,,44.324507,25.994336,,,,
6121,3638,Grup Scolar Ind. Republica,,44.43219,26.191981,,,,
6123,3639,Grup Scolar Ind. Republica,,44.432415,26.191437,,,,
7241,364,Complex Comercial,,44.451535,26.146019,,,,
6139,3642,Crinului,,44.480492,26.034271,,,,
6141,3643,Crinului,,44.481015,26.033445,,,,
6143,3644,Minerva,,44.478806,26.038535,,,,
6145,3645,Minerva,,44.479315,26.037691,,,,
3379,3650,Hala Traian,,44.43307,26.120544,,,,
3911,3652,Depoul Alexandria,,44.398613,26.044497,,,,
3390,3654,Piata Vitan,,44.42285,26.123732,,,,
3391,3655,Piata Vitan,,44.422601,26.123827,,,,
6175,3656,Institutul Pasteur,,44.468591,26.027983,,,,
6177,3657,Piata Giulesti,,44.466367,26.035085,,,,
6171,3658,Bd. Constructorilor,,44.462152,26.0408,,,,
6173,3659,Mehadiei,,44.455832,26.043225,,,,
3628,366,Soseaua Vitan Barzesti,,44.385793,26.140079,,,,
6148,3661,Mehadiei,,44.456541,26.042725,,,,
6147,3662,Bd. Constructorilor,,44.463498,26.041449,,,,
6202,3663,Piata Giulesti,,44.466484,26.035047,,,,
6204,3664,Institutul Pasteur,,44.468968,26.027026,,,,
6178,3671,Mircea Vulcanescu,,44.441421,26.072177,,,,
6180,3672,Primaria Sector 6,,44.445825,26.067189,,,,
6179,3673,Primaria Sector 6,,44.445289,26.067676,,,,
6072,3679,Costisa,,44.411314,26.011737,,,,
6071,3680,Costisa,,44.411372,26.012479,,,,
3337,3686,Parcul Carol I,,44.419776,26.095169,,,,
3340,3687,Parcul Carol I,,44.419417,26.094986,,,,
3632,369,Soseaua Vitan Barzesti,,44.386273,26.13889,,,,
3771,3700,Dumitru Marinescu,,44.439228,26.143051,,,,
6352,3703,Copsa Mica,,44.467355,26.031903,,,,
6342,3704,Copsa Mica,,44.467696,26.031087,,,,
6343,3705,Godeni,,44.464638,26.039021,,,,
6339,3706,Godeni,,44.465154,26.038339,,,,
3621,371,C.F.R. Progresul,,44.369084,26.088718,,,,
8980,3710,Scoala Tamasi,,44.5839,26.006023,,,,
3622,372,Cap. Raducanu Cristea,,44.372993,26.090218,,,,
8491,3722,Primaria Corbeanca,,44.59415,26.037493,,,,
8492,3723,Primaria Corbeanca,,44.594104,26.037774,,,,
6207,3725,Pasaj Cfr Chitila,,44.515129,25.970607,,,,
8486,3726,Arcadei,,44.596147,26.050314,,,,
8977,3727,Primaverii,,44.591328,26.026463,,,,
8489,3729,Arcadei,,44.59616,26.050711,,,,
6272,3732,Pasaj Marasesti,,44.421355,26.110066,,,,
6276,3735,Pasaj Cfr Chitila,,44.514859,25.971115,,,,
3447,3738,Soseaua Stefan cel Mare,,44.451498,26.119528,,,,
6277,3739,Stirbei Voda,,44.440351,26.093104,,,,
3423,3740,Faur,,44.434343,26.183492,,,,
3422,3741,Bd. Expozitiei,,44.473605,26.061253,,,,
6257,3749,Oituz,,44.291252,26.060814,,,,
6268,3750,Oituz,,44.29118,26.06063,,,,
6659,3751,Depoul Dudesti,,44.421476,26.131843,,,,
6660,3752,Depoul Dudesti,,44.42164,26.131697,,,,
12074,3756,Piata Baneasa,,44.493923,26.083987,,,,
12075,3757,Piata Baneasa,,44.493871,26.084168,,,,
6661,3758,Liviu Rebreanu,,44.285244,26.059988,,,,
6662,3759,Liviu Rebreanu,,44.285514,26.060208,,,,
7236,376,Drumul Taberei 85,,44.417739,26.020904,,,,
6672,3764,Raul Colentina,,44.453949,26.149314,,,,
6673,3765,Dimitrie Grozdea,,44.451789,26.151822,,,,
6674,3766,Torentului,,44.446546,26.155561,,,,
6675,3767,Bd. Chisinau,,44.443746,26.157735,,,,
6676,3768,Torentului,,44.447189,26.154982,,,,
6677,3769,Dimitrie Grozdea,,44.452409,26.151833,,,,
7235,377,Liviu Rebreanu,,44.424454,26.163289,,,,
6670,3770,Raul Colentina,,44.454629,26.148668,,,,
6612,3775,Complex Comercial,,44.457449,26.041624,,,,
6614,3776,Complex Comercial,,44.45812,26.04122,,,,
6610,3777,Complex Comercial,,44.402232,26.062719,,,,
6611,3778,Piata Sf. Gheorghe,,44.432234,26.103322,,,,
10414,378,Raul Doamnei,,44.415594,26.023951,,,,
6608,3780,E.L.C.E.N.,,44.440311,26.066125,,,,
6606,3782,Depozit Pajura,,44.484257,26.048572,,,,
6605,3783,Bd. Gloriei,,44.483542,26.04157,,,,
6642,3784,I.N.M.H.,,44.513439,26.078629,,,,
6643,3785,I.N.M.H.,,44.513248,26.077811,,,,
6645,3786,Horia Macelariu,,44.490705,26.085027,,,,
3890,3787,Spitalul Dr. Alexandru Obregia,,44.385009,26.122238,,,,
3888,3788,Spitalul Dr. Alexandru Obregia,,44.384674,26.122369,,,,
6641,3789,Ciuca Stefan,,44.479416,26.149541,,,,
7233,379,Pod Baneasa,,44.491281,26.07921,,,,
6637,3790,Escalei,,44.481657,26.147536,,,,
6631,3791,Mentiunii,,44.481693,26.142951,,,,
6629,3792,Oituz,,44.479728,26.14314,,,,
6633,3793,Zamfir Nicolae,,44.473881,26.145103,,,,
6632,3794,Gherghitei,,44.471725,26.141504,,,,
3399,38,Baba Novac,,44.424908,26.137447,,,,
3502,3800,Soseaua Colentina,,44.452994,26.126293,,,,
3614,382,Cap. Raducanu Cristea,,44.373553,26.090331,,,,
6714,3821,Piata Rahova,,44.406626,26.06371,,,,
6718,3826,Bd. Marasesti,,44.420981,26.103021,,,,
6715,3827,Dr. Constantin Istrati,,44.411846,26.089145,,,,
6716,3828,Autogara Filaret,,44.415263,26.092682,,,,
6719,3829,Autogara Filaret,,44.414553,26.09115,,,,
3612,383,C.F.R. Progresul,,44.369787,26.089136,,,,
11106,3844,Calea 13 Septembrie,,44.422816,26.069229,,,,
6713,3847,Dristorului,,44.419826,26.138886,,,,
3617,385,Spitalul Sf. Pantelimon,,44.441948,26.174415,,,,
6703,3857,Piata Titan,,44.412689,26.164957,,,,
6699,3858,Dumbrava Noua,,44.411787,26.168333,,,,
3616,386,Soseaua Fundeni,,44.442571,26.164714,,,,
6681,3863,Sos.Stefan cel Mare,,44.452585,26.101006,,,,
6688,3865,Policolor,,44.408051,26.191872,,,,
6686,3866,Stirom,,44.408539,26.188737,,,,
6685,3867,I.O.R. 2,,44.40943,26.183003,,,,
6684,3868,Ozana,,44.41034,26.177041,,,,
6678,3869,Bd. 1 Decembrie 1918,,44.411093,26.172076,,,,
3615,387,Bd. Chisinau,,44.443026,26.156151,,,,
6691,3870,Dumbrava Noua,,44.412318,26.167579,,,,
6692,3871,Fizicienilor,,44.415276,26.152863,,,,
6893,3873,Piata Ramnicu Sarat,,44.418043,26.145747,,,,
6892,3874,Dristorului,,44.419101,26.140611,,,,
6896,3877,Bd. 1 Decembrie 1918,,44.410554,26.173695,,,,
6894,3878,Ozana,,44.409845,26.178366,,,,
6895,3879,I.O.R. 2,,44.409009,26.183954,,,,
6905,3880,Stirom,,44.408086,26.189704,,,,
6902,3881,Policolor,,44.407619,26.19271,,,,
6917,3884,Barbu Vacarescu,,44.464255,26.108043,,,,
6919,3886,Faur,,44.426425,26.179851,,,,
6920,3887,Witing,,44.442913,26.071147,,,,
6922,3889,Bd. Banu Manta,,44.452457,26.074536,,,,
3398,39,Calea Dudesti,,44.419542,26.136334,,,,
3587,390,Lt. Victor Manu,,44.442085,26.140704,,,,
3586,391,Piata Iancului,,44.441388,26.134822,,,,
3591,392,Matasari,,44.440532,26.129398,,,,
3589,393,Scoala Iancului,,44.439521,26.123877,,,,
7081,3932,Teius,,44.403206,26.057108,,,,
7082,3934,Teius,,44.40354,26.058335,,,,
7079,3935,Mihai Eminescu,,44.448203,26.103057,,,,
3595,394,Hala Traian,,44.433249,26.120877,,,,
3593,395,Piata Corneliu Coposu,,44.431861,26.110581,,,,
7129,3951,Pasaj Baneasa,,44.486611,26.093812,,,,
7120,3953,Soseaua Pipera,,44.481073,26.101653,,,,
7122,3955,Giuseppe Verdi,,44.468446,26.10936,,,,
7098,3961,Soseaua Pipera,,44.47965,26.103213,,,,
7095,3962,Maguricea,,44.484775,26.096506,,,,
7093,3963,Pasaj Baneasa,,44.485855,26.094687,,,,
3472,3969,Calea 13 Septembrie,,44.422104,26.070311,,,,
3463,3970,Navigatiei,,44.477866,26.041045,,,,
3537,3971,Navigatiei,,44.478021,26.040749,,,,
7166,3973,Sos.Pantelimon,,44.446608,26.1343,,,,
7169,3975,Ciuca Stefan,,44.476126,26.14458,,,,
7224,398,Heliade Intre Vii,,44.453979,26.142319,,,,
7155,3987,Sos. Berceni 104,,44.349475,26.157905,,,,
7154,3988,Sos. Berceni 104,,44.34968,26.15788,,,,
7153,3989,Bd. Ghica Tei,,44.46354,26.126176,,,,
3608,399,Stadion Dinamo,,44.452985,26.105985,,,,
7147,3990,Academia de Politie,,44.516715,26.084086,,,,
3770,3991,Foisorul de Foc,,44.441078,26.120548,,,,
3812,3993,Cremenita (Piata Colentina),,44.464374,26.134538,,,,
3813,3994,Cremenita (Piata Colentina),,44.464811,26.135427,,,,
7308,3995,Complex Comercial Apusului,,44.438221,26.01502,,,,
3145,4,Calea Vitan,,44.415376,26.133371,,,,
3403,40,Dristorului,,44.419337,26.140225,,,,
3149,400,Stadion Dinamo,,44.452962,26.104647,,,,
6964,4000,Universitate,,44.435063,26.10044,,,,
6966,4001,Sura Mare,,44.400903,26.097153,,,,
6961,4003,Complex Comercial Baneasa,,44.508136,26.086019,,,,
6952,4004,Complex Comercial Baneasa,,44.507842,26.08634,,,,
3147,401,Piata Iancului,,44.441582,26.132855,,,,
6936,4011,Poiana Cu Aluni,,44.463319,26.141147,,,,
6932,4017,Pascal Cristian,,44.446329,26.056845,,,,
6934,4018,Tibles,,44.449984,26.055111,,,,
3151,402,Pridvorului,,44.397836,26.120891,,,,
3351,4025,Piata Sf. Vineri,,44.429859,26.107536,,,,
3679,403,Calea Victoriei,,44.448575,26.089543,,,,
6915,4033,Drumul Razboieni,,44.554793,25.957227,,,,
6914,4034,Complex Comercial West Park,,44.435481,25.958106,,,,
3334,4035,Piata Sf. Vineri,,44.429346,26.107379,,,,
6908,4037,Jandarmeriei,,44.508918,26.061106,,,,
6909,4038,Grigore Alexandru Ghica,,44.5104,26.066875,,,,
6907,4039,Grigore Alexandru Ghica,,44.510076,26.065641,,,,
3138,404,Piata Chirigiu,,44.417425,26.081658,,,,
6889,4040,G-ral Ion Bunoaica,,44.511426,26.070847,,,,
6888,4041,G-ral Ion Bunoaica,,44.511305,26.070325,,,,
3321,4043,Calea Vitan,,44.415379,26.132044,,,,
3788,4046,Piata Unirii,,44.424793,26.103905,,,,
6891,4047,Petuniei,,44.427473,26.015153,,,,
7137,4048,Petuniei,,44.428072,26.015805,,,,
7136,4049,Sos. Viilor,,44.416982,26.083418,,,,
3508,4050,Piata Obor,,44.451023,26.12981,,,,
3514,4051,Piata Obor,,44.450899,26.129854,,,,
7156,4053,Jiului,,44.484898,26.058163,,,,
7157,4054,Piata Obor,,44.452013,26.12904,,,,
7159,4055,Piata Obor,,44.45055,26.130087,,,,
7160,4056,Antiaeriana,,44.400664,26.050632,,,,
7158,4057,Antiaeriana,,44.400639,26.051081,,,,
7170,4061,Teius,,44.403957,26.057606,,,,
3785,4062,Depoul Alexandria,,44.398184,26.044372,,,,
7171,4063,Depoul Alexandria,,44.399187,26.047307,,,,
7172,4064,Buzoieni,,44.407362,26.058588,,,,
7173,4066,Peco,,44.385788,26.00198,,,,
7174,4067,Peco,,44.385818,26.002397,,,,
7175,4069,Darmanesti,,44.50273,26.054961,,,,
7091,4070,Drumul Regimentului,,44.503298,26.050265,,,,
7087,4071,Piscul Scoartei,,44.504588,26.04029,,,,
7088,4072,Sos.Bucuresti Targoviste,,44.506245,26.027651,,,,
7105,4075,Sos.Bucuresti Targoviste,,44.50617,26.02741,,,,
7106,4076,Piscul Scoartei,,44.504445,26.040644,,,,
7103,4077,Drumul Regimentului,,44.503331,26.049367,,,,
7104,4078,Darmanesti,,44.50253,26.055816,,,,
7102,4079,Nuferilor,,44.490565,26.064519,,,,
8861,408,Biobaza Darvari,,44.419594,25.872956,,,,
7118,4080,Nuferilor,,44.491584,26.064359,,,,
7123,4083,Ansamblul Primavara,,44.410692,26.00667,,,,
7133,4084,Ansamblul Primavara,,44.410756,26.00763,,,,
7134,4086,Cartierul Latin,,44.40848,25.992784,,,,
7135,4087,Piscul Radului,,44.503838,26.045153,,,,
7131,4088,Piscul Radului,,44.504208,26.043189,,,,
7132,4089,Raul Doamnei,,44.41296,26.026342,,,,
3128,409,Piata Chirigiu,,44.417097,26.081077,,,,
7074,4090,Constanta,,44.459059,26.13667,,,,
7078,4091,Constanta,,44.45944,26.136415,,,,
7077,4092,Bd. Iuliu Maniu,,44.434694,26.011968,,,,
7076,4093,Bd. Iuliu Maniu,,44.434562,26.011637,,,,
7075,4094,Pod Centura,,44.38153,25.98839,,,,
7073,4099,Complex Cartier Latin,,44.40573,25.990643,,,,
3402,41,Laborator,,44.417087,26.134834,,,,
3701,410,Gara de Nord,,44.447866,26.076369,,,,
6683,4104,Luica,,44.37863,26.094217,,,,
6682,4106,Romprim,,44.38404,26.145692,,,,
6687,4107,Romprim,,44.383531,26.146789,,,,
3182,411,Pridvorului,,44.397612,26.120849,,,,
6690,4113,Piata Ferentari,,44.39891,26.084778,,,,
6700,4117,Sebastian,,44.412555,26.072644,,,,
6701,4118,Petre Ispirescu,,44.409893,26.068991,,,,
6702,4119,ADP Sector 1,,44.5214,26.028491,,,,
6706,4120,ADP Sector 1,,44.521398,26.028699,,,,
6708,4122,Soseaua Odai 179,,44.531197,26.055483,,,,
6745,4126,Cartier Vitan Barzesti,,44.398123,26.142896,,,,
3178,413,Cesarom,,44.431542,26.000817,,,,
6759,4137,Lacul Grivita,,44.505281,26.036047,,,,
6760,4138,Lacul Grivita,,44.505451,26.03539,,,,
8404,414,Primaria Cornetu,,44.343185,25.94417,,,,
6763,4140,Pod Lacuri,,44.424276,26.15878,,,,
6764,4141,Pod Lacuri,,44.424129,26.156505,,,,
8435,4143,Policlinica,,44.594184,26.042628,,,,
8981,4145,Garoafei,,44.581104,26.000275,,,,
8947,4146,Garoafei,,44.580977,26.000171,,,,
8453,4148,Policlinica,,44.594142,26.042316,,,,
3168,415,Urbis,,44.430981,25.99393,,,,
8948,4150,Scoala Tamasi,,44.583833,26.005884,,,,
6722,4151,Spitalul Nicolae Malaxa,,44.438831,26.178449,,,,
6721,4153,Complex Comercial Pantelimon,,44.439299,26.187427,,,,
6725,4154,Complex Comercial Pantelimon,,44.439288,26.188838,,,,
6723,4156,Spitalul Pantelimon,,44.442233,26.171622,,,,
6724,4157,Soseaua Fundeni,,44.4427,26.163299,,,,
6728,4158,Soseaua Iancului,,44.442596,26.149919,,,,
6727,4159,Bd. Chisinau,,44.442624,26.159885,,,,
6735,4160,Soseaua Morarilor,,44.442306,26.167294,,,,
6736,4161,Spitalul Pantelimon,,44.441745,26.174931,,,,
6739,4164,Spitalul Nicolae Malaxa,,44.438914,26.178324,,,,
6740,4165,Sos. Morarilor,,44.436734,26.167071,,,,
6741,4166,Facultatea de Pompieri,,44.437678,26.168975,,,,
6742,4167,Facultatea de Pompieri,,44.437356,26.171187,,,,
3165,417,S.C. Vest,,44.430595,25.989314,,,,
6591,4170,Complex Comercial Militari,,44.439428,25.984925,,,,
6589,4171,Drumul Funigeilor,,44.40965,25.998085,,,,
6583,4172,Drumul Funigeilor,,44.409627,25.998268,,,,
6584,4179,Cartier Rez. Splaiul Unirii,,44.394625,26.201473,,,,
3162,418,Inscut,,44.430068,25.983084,,,,
6579,4180,Soseaua Mihai Bravu,,44.414533,26.131859,,,,
6578,4181,Penes Curcanul,,44.412059,26.127623,,,,
6576,4182,Pod Mihai Bravu,,44.408631,26.122892,,,,
6569,4183,Pod Vitan Barzesti,,44.403123,26.143029,,,,
6567,4184,Pod Vitan Barzesti,,44.404001,26.141955,,,,
3172,419,Depoul Militari,,44.429556,25.977501,,,,
6556,4194,Pasaj Otopeni,,44.533525,26.068001,,,,
6555,4195,Platforma Comerciala Arcade Berceni,,44.362688,26.123441,,,,
6558,4196,Platforma Comerciala Arcade Berceni,,44.362537,26.122978,,,,
6557,4197,Bd. Ficusului,,44.488844,26.083748,,,,
3401,42,Calea Vitan,,44.414422,26.131919,,,,
3212,420,Depoul Militari,,44.429729,25.979317,,,,
6417,4201,Intrarea Serelor,,44.39825,26.162211,,,,
6220,4202,Nicolae Teclu,,44.395148,26.201566,,,,
6222,4203,Bd. Lacul Tei,,44.457136,26.106733,,,,
6217,4204,Bodesti,,44.438005,26.173758,,,,
6218,4205,Bodesti,,44.437794,26.173333,,,,
6213,4206,Soseaua de Centura,,44.395447,26.22105,,,,
6214,4207,Complex Cartier Latin,,44.404987,25.990257,,,,
6209,4208,Bd. Banu Manta,,44.455498,26.080873,,,,
6211,4209,Bd. Banu Manta,,44.455486,26.080665,,,,
6227,4212,C.E.T. Sud Vitan,,44.405686,26.14804,,,,
6235,4216,Barbu Vacarescu,,44.480723,26.104232,,,,
3215,422,Inscut,,44.430074,25.983489,,,,
6243,4220,Barbu Vacarescu,,44.480968,26.104187,,,,
6242,4221,Drumul Cooperativei,,44.413216,26.030483,,,,
6246,4222,Cimitirul Ghencea 3,,44.403954,26.021544,,,,
6252,4224,Bascov,,44.408669,26.025972,,,,
6253,4225,Bascov,,44.40982,26.027183,,,,
6256,4229,Fortului,,44.516655,26.014053,,,,
3213,423,S.C. Vest,,44.430583,25.98968,,,,
6265,4230,Parc Industrial,,44.518643,26.011727,,,,
6269,4233,Stadion FRF,,44.539412,25.983137,,,,
6267,4234,Stadion FRF,,44.538793,25.984092,,,,
6271,4237,Parc Industrial,,44.518482,26.01182,,,,
6273,4238,Fortului,,44.516618,26.013959,,,,
6469,424,Gara Progresul,,44.366439,26.090646,,,,
6286,4241,Cartier Constantin Brancusi,,44.419036,26.00281,,,,
6288,4242,Parcul Constantin Brancusi,,44.418478,26.007745,,,,
6287,4243,Coloana Infinitului,,44.419515,26.010094,,,,
6290,4244,Masa Tacerii,,44.420083,26.012424,,,,
6289,4245,Valea Argesului,,44.415783,26.015546,,,,
6301,4246,Valea Doftanei,,44.41896,26.013071,,,,
6300,4247,Parcul Constantin Brancusi,,44.418459,26.006973,,,,
6298,4248,Soseaua Orhideelor,,44.443943,26.060924,,,,
3217,425,Urbis,,44.430983,25.994329,,,,
6307,4252,Luica,,44.378947,26.090597,,,,
6306,4254,Petrom,,44.492233,26.063958,,,,
6303,4255,Petrom City,,44.490753,26.062265,,,,
6305,4256,Cartier Damaroaia,,44.488488,26.05235,,,,
6320,4257,Cartier Damaroaia,,44.487929,26.051872,,,,
3488,4258,Calea Plevnei,,44.446984,26.0625,,,,
6322,4259,Caracal,,44.394946,26.048685,,,,
3201,426,Cesarom,,44.431542,26.00117,,,,
6326,4260,Tobosari,,44.395187,26.054921,,,,
6327,4261,Gutuilor,,44.399792,26.056048,,,,
6328,4262,Piata Rahova,,44.403658,26.062489,,,,
6329,4263,Petre Grigoreanu,,44.397813,26.061707,,,,
6323,4265,Muntii Carpati,,44.394048,26.064292,,,,
6324,4266,Scoala Generala Nr. 127,,44.395745,26.064688,,,,
6325,4267,Dumitru Penes,,44.39985,26.065711,,,,
6350,4268,Piata Rahova,,44.40474,26.061038,,,,
6348,4269,Sere,,44.395454,26.173162,,,,
6466,427,Oras Buftea,,44.575583,25.940869,,,,
6364,4270,Splaiul Unirii 749,,44.396961,26.169615,,,,
6356,4271,Podul Ilfovat,,44.473089,26.017178,,,,
6357,4272,Podul Ilfovat,,44.47265,26.017749,,,,
6354,4273,INML,,44.388586,26.14135,,,,
6355,4274,INML,,44.389375,26.142127,,,,
6358,4275,Gradinita nr. 115,,44.491781,26.058625,,,,
6359,4276,Gradinita nr. 115,,44.49169,26.058531,,,,
3719,428,Piata Buzesti,,44.447776,26.083105,,,,
6374,4284,Rasadnitei,,44.474447,26.005419,,,,
6376,4285,Giulesti Sarbi,,44.471123,26.000898,,,,
6378,4287,Giuseppe Verdi,,44.469643,26.109961,,,,
3717,429,Calea Victoriei,,44.447982,26.088313,,,,
3332,4290,Calea Giulesti,,44.448127,26.064854,,,,
6088,4291,Taberei,,44.393913,26.185029,,,,
3335,4296,Pasajul Basarab,,44.449969,26.068733,,,,
3336,4297,Pasajul Basarab,,44.450057,26.068947,,,,
3400,43,Penes Curcanul,,44.412279,26.128168,,,,
3231,430,Piata Regina Maria,,44.422015,26.09149,,,,
7559,4309,Cartier Militari,,44.446385,25.982411,,,,
3229,431,Hala Traian,,44.43297,26.121406,,,,
7564,4311,Oasului,,44.492008,26.028201,,,,
7567,4312,Liceul Dumitru Dumitrescu,,44.571611,25.943407,,,,
7566,4313,Liceul Dumitru Dumitrescu,,44.571436,25.943423,,,,
7565,4314,Drumul Razboieni,,44.554824,25.956957,,,,
7569,4316,Drumul Osiei,,44.435825,25.987424,,,,
7568,4319,Complex Comercial Titan,,44.423749,26.177367,,,,
7591,4320,Complex Comercial Colosseum,,44.491504,26.014037,,,,
7589,4321,Complex Comercial Titan,,44.423252,26.176578,,,,
3571,4322,Piata Ramnicu Sarat,,44.417829,26.14595,,,,
3520,4323,Piata Ramnicu Sarat,,44.418029,26.14541,,,,
3521,4324,Valea Cascadelor,,44.423705,25.999767,,,,
3518,4325,Valea Cascadelor,,44.423764,26.00067,,,,
7533,4326,Valea Cascadelor,,44.423655,26.000294,,,,
7531,4327,Valea Cascadelor,,44.42352,25.99839,,,,
7529,4329,Bd. Metalurgiei 136,,44.365795,26.12923,,,,
7522,4330,Bd. Metalurgiei 136,,44.366001,26.129896,,,,
7519,4333,Calea Ferentari,,44.413294,26.072941,,,,
7547,4334,Resita,,44.378118,26.097915,,,,
7550,4337,Valea Cascadelor,,44.424985,25.999271,,,,
7543,4338,Complex Comercial Titan,,44.423978,26.17587,,,,
7544,4339,Hotel Phoenicia,,44.492082,26.08824,,,,
7537,4340,La Botea,,44.256668,26.098615,,,,
7534,4342,Liceu,,44.450806,26.012157,,,,
7536,4343,Bucur Obor,,44.44857,26.125942,,,,
7535,4344,Bucur Obor,,44.448329,26.125242,,,,
7500,4346,Complex Auto Splaiul Unirii,,44.398312,26.164294,,,,
7497,4347,Pod Ciorogarla,,44.342439,26.021207,,,,
7498,4348,Pod Ciorogarla,,44.342458,26.02097,,,,
7501,4349,Sold. Adrian Patru,,44.490888,26.010596,,,,
7510,4356,Piata Unirii 3,,44.425816,26.103265,,,,
7512,4357,Piata Unirii 4,,44.427806,26.104,,,,
7514,4358,Piata Unirii 5,,44.428065,26.103987,,,,
3228,436,Piata Regina Maria,,44.421794,26.090994,,,,
7505,4361,Sos. Berceni 104 S,,44.351552,26.156356,,,,
7503,4362,Sos. Berceni 104 S,,44.351741,26.156291,,,,
3486,4365,Radio Romania,,44.440276,26.081474,,,,
3485,4366,Radio Romania,,44.440681,26.08139,,,,
3442,4367,Mircea Vulcanescu,,44.443304,26.081063,,,,
3441,4368,Mircea Vulcanescu,,44.443655,26.081133,,,,
3440,4369,Vasile Parvan,,44.436508,26.083859,,,,
7452,4370,Mircea Vulcanescu,,44.442368,26.080777,,,,
7451,4373,Pasaj Colentina,,44.477789,26.163216,,,,
7448,4375,Barajul Iezerul,,44.432888,26.172427,,,,
7444,4376,Barajul Iezerul,,44.432176,26.172844,,,,
3740,438,Piata Buzesti,,44.44788,26.081218,,,,
7468,4380,Universitatea Hyperion,,44.43234,26.125442,,,,
7478,4381,Delea Veche,,44.431656,26.130369,,,,
7480,4382,Piata Hurmuzachi,,44.431713,26.136865,,,,
7482,4383,Patinoar,,44.432715,26.145805,,,,
7471,4385,Bd. Nicolae Grigorescu,,44.435027,26.160781,,,,
7473,4386,Baia de Arama,,44.436042,26.164586,,,,
7475,4387,Lucretiu Patrascanu,,44.436603,26.167264,,,,
7477,4388,Cartier Fortuna Coborare,,44.389797,26.005205,,,,
7414,4389,Baia de Arama,,44.435992,26.163843,,,,
7404,4390,Bd. Nicolae Grigorescu,,44.435231,26.160938,,,,
7408,4392,Patinoar,,44.43288,26.146359,,,,
7409,4393,Piata Hurmuzachi,,44.432353,26.13997,,,,
7406,4394,Delea Veche,,44.432019,26.12875,,,,
7407,4395,Universitatea Hyperion,,44.43255,26.125162,,,,
7413,4397,Piata Alba Iulia,,44.425536,26.127495,,,,
7410,4398,Bd. Nicolae Balcescu,,44.439452,26.100572,,,,
7411,4399,Bd. Nicolae Balcescu,,44.43989,26.10006,,,,
3527,44,Pod Mihai Bravu,,44.409409,26.122875,,,,
3269,440,Alexandru Sihleanu,,44.432975,26.113699,,,,
7186,4400,Liceul Francez,,44.521563,26.075205,,,,
7183,4401,A.S.E.,,44.447628,26.099471,,,,
7179,4404,Statia Electrica,,44.403883,25.963791,,,,
7178,4405,Floarea Soarelui,,44.401395,25.928964,,,,
7182,4406,Fabulei,,44.401012,25.923705,,,,
7181,4407,Scoala Gheorghe Corneliu,,44.401928,25.906661,,,,
7177,4408,Sarutului,,44.400921,25.923603,,,,
7176,4409,Floarea Soarelui,,44.401288,25.92928,,,,
7188,4410,Ansamblul Olteni,,44.403699,25.963056,,,,
7196,4412,Frumoasa,,44.403281,25.938935,,,,
7195,4413,Morii,,44.403099,25.902554,,,,
7194,4414,Baboi,,44.398415,25.918903,,,,
7193,4415,Bubica,,44.403233,25.93971,,,,
7192,4416,Cernei,,44.403296,25.945721,,,,
7191,4417,Ciutaci,,44.400963,25.909979,,,,
7190,4418,Foisorului,,44.404262,25.935017,,,,
7189,4419,Craitei,,44.406397,25.929926,,,,
3271,442,Bd. Pache Protopopescu,,44.438353,26.120303,,,,
7197,4420,Sipotul Apelor,,44.406921,25.92591,,,,
7198,4421,Alunisului,,44.407202,25.922367,,,,
7200,4422,Ciocarliei,,44.407483,25.916945,,,,
7199,4423,Stadion,,44.404212,25.910839,,,,
7202,4424,Gradinita Domnesti,,44.400243,25.910178,,,,
7201,4425,Marte,,44.398923,25.906473,,,,
7205,4426,Neptun,,44.394782,25.900405,,,,
7204,4427,Orhideelor,,44.391968,25.89632,,,,
7207,4428,Poiana Izvoarelor,,44.38658,25.888392,,,,
7206,4429,Bucegi,,44.384851,25.885854,,,,
3272,443,Scoala Iancului,,44.439461,26.123713,,,,
7209,4430,Marinarilor,,44.383513,25.881533,,,,
7210,4431,Padurarilor,,44.382558,25.876342,,,,
7212,4432,Transilvaniei,,44.381561,25.870905,,,,
7216,4433,Teghes,,44.379354,25.870104,,,,
7215,4434,Transilvaniei,,44.381607,25.871361,,,,
7214,4435,Padurarilor,,44.382705,25.877392,,,,
7213,4436,Marinarilor,,44.383598,25.882268,,,,
7219,4437,Bucegi,,44.385018,25.886182,,,,
7218,4438,Poiana Izvoarelor,,44.386891,25.888931,,,,
7217,4439,Orhideelor,,44.392204,25.896725,,,,
3267,444,Matasari,,44.440331,26.12839,,,,
7222,4440,Neptun,,44.395004,25.900821,,,,
7223,4441,Jupiter,,44.399013,25.906725,,,,
7220,4442,Cartierul Nou,,44.403953,25.91069,,,,
7221,4443,Ciocarliei,,44.407497,25.917594,,,,
7099,4444,Alunisului,,44.407052,25.923816,,,,
7100,4445,Sipotul Apelor,,44.406839,25.926561,,,,
7094,4446,Craitei,,44.405975,25.9308,,,,
7096,4447,Foisorului,,44.404157,25.935267,,,,
7089,4448,Cartierul Latin,,44.407782,25.990275,,,,
7092,4449,Stadionul Dinamo,,44.453103,26.104001,,,,
7086,4450,Stadionul Dinamo,,44.45285,26.104129,,,,
7084,4452,Piata Sudului,,44.392392,26.124765,,,,
7083,4453,Scoala Generala 145,,44.455587,26.144293,,,,
3461,4454,Piata Hurmuzachi,,44.432551,26.13814,,,,
7125,4455,Cartier Constantin Brancusi,,44.418533,26.002414,,,,
7119,4459,Smardan,,44.388431,26.011381,,,,
3268,446,Lt. Victor Manu,,44.44213,26.141396,,,,
7116,4460,Smardan,,44.388569,26.012237,,,,
7115,4461,Parcul Sebastian,,44.416005,26.070213,,,,
7110,4462,Parcul Sebastian,,44.415269,26.070732,,,,
7108,4463,Energeticienilor,,44.406763,26.145657,,,,
7114,4464,Energeticienilor,,44.407132,26.144831,,,,
7112,4465,Magnoliei,,44.409114,25.994693,,,,
7150,4466,Magnoliei,,44.40942,25.996502,,,,
7152,4467,Complex Comercial Fundeni,,44.446183,26.166147,,,,
7148,4468,Complex Comercial Fundeni,,44.44678,26.166428,,,,
7149,4469,Livezii,,44.373756,26.045093,,,,
7143,4470,Livezii,,44.373943,26.045336,,,,
3768,4471,Arena Nationala,,44.439667,26.150433,,,,
3767,4472,Arena Nationala,,44.439707,26.150943,,,,
3507,4473,Arena Nationala,,44.433341,26.152573,,,,
3506,4474,Arena Nationala,,44.433341,26.15298,,,,
7146,4476,Arena Nationala,,44.43329,26.153467,,,,
7165,4477,Arena Nationala,,44.433409,26.152655,,,,
3782,4478,Colegiul National Gh. Sincai,,44.415115,26.104584,,,,
3784,4479,Colegiul National Gh. Sincai,,44.413271,26.105298,,,,
3280,448,Bd. Pierre de Coubertin,,44.443028,26.149493,,,,
7162,4480,Colegiul National Gh. Sincai,,44.414921,26.105797,,,,
7161,4481,Colegiul National Gh. Sincai,,44.414581,26.105677,,,,
7163,4482,Colegiul National Gh. Sincai,,44.414868,26.104338,,,,
3534,4483,Colegiul National Gh. Sincai,,44.414536,26.105407,,,,
3535,4484,Colegiul National Gh. Sincai,,44.414339,26.105034,,,,
3536,4486,Zetarilor,,44.386099,26.07822,,,,
7053,4489,Muzeul Culturii Romilor,,44.474261,26.013842,,,,
3281,449,Bd. Chisinau,,44.442992,26.156436,,,,
7044,4490,Muzeul Culturii Romilor,,44.47455,26.013062,,,,
7038,4491,Tandarei,,44.4107,26.148052,,,,
7039,4492,Tandarei,,44.411629,26.148488,,,,
7032,4493,Complex Comercial Vitan,,44.408066,26.140794,,,,
7035,4494,Complex Comercial Vitan,,44.408017,26.140644,,,,
7029,4495,Complex Comercial Vitan,,44.408881,26.139278,,,,
7031,4496,Complex Comercial Vitan,,44.409023,26.138955,,,,
3653,4497,1 Mai,,44.417782,26.035534,,,,
3654,4498,1 Mai,,44.419406,26.047093,,,,
7070,4499,Parcul Drumul Taberei,,44.418406,26.03458,,,,
3526,45,Dristorului,,44.419312,26.140408,,,,
3284,450,Soseaua Morarilor,,44.442442,26.166724,,,,
6709,4500,Parcul Drumul Taberei,,44.417288,26.034335,,,,
3680,4501,Parcul Drumul Taberei,,44.418186,26.033535,,,,
3420,4502,Parcul Drumul Taberei,,44.418406,26.034446,,,,
3421,4503,Parcul Drumul Taberei,,44.417488,26.034423,,,,
6710,4506,Baba Novac,,44.424233,26.13839,,,,
6705,4507,Constantin Cristescu,,44.440079,26.085289,,,,
6704,4508,Arefului,,44.405494,26.022066,,,,
6707,4509,Dantelei,,44.407332,26.017374,,,,
3286,451,Spitalul Sf. Pantelimon,,44.442076,26.172152,,,,
6696,4510,Lavei,,44.405229,26.016087,,,,
6695,4511,Piata Presei,,44.476977,26.073024,,,,
6697,4517,Releului,,44.402435,26.148087,,,,
6689,4518,Bd. Lacul Tei,,44.464831,26.128415,,,,
6679,4520,Colectiv,,44.419579,26.110761,,,,
3539,4523,Piata Iancului,,44.441482,26.135669,,,,
3540,4524,Bd. Pierre de Coubertin,,44.442978,26.14879,,,,
6761,4530,Hala Traian,,44.4329,26.121599,,,,
6755,4535,Alexandru Sihleanu,,44.432911,26.113608,,,,
6752,4536,Hala Traian,,44.43318,26.12026,,,,
6753,4537,Piata Sf. Stefan,,44.433303,26.116819,,,,
6751,4539,Firos,,44.422536,25.987049,,,,
3285,454,Soseaua Iancului,,44.4436,26.149516,,,,
6749,4540,ITIA,,44.42293,25.991467,,,,
6748,4541,Firos,,44.422521,25.987381,,,,
6747,4542,ITIA,,44.422891,25.99207,,,,
6730,4543,Comat Auto,,44.423196,25.99571,,,,
6731,4544,Comat Auto,,44.423198,25.994625,,,,
3758,4545,Balotului,,44.468851,26.153285,,,,
6732,4547,Facultatea de Pompieri,,44.438316,26.167859,,,,
6733,4548,Vasile Gherghel,,44.463954,26.070224,,,,
6734,4549,Clinceni,,44.376272,25.938318,,,,
3290,455,Bd. Ferdinand,,44.446041,26.135026,,,,
3292,456,Horei,,44.441749,26.124539,,,,
6817,4565,Soseaua Nicolae Titulescu,,44.449821,26.070368,,,,
6815,4566,Piata Pucheni,,44.391372,26.06025,,,,
6814,4567,Bragadiru,,44.365404,25.970402,,,,
6813,4568,Hotarului,,44.370681,25.95992,,,,
6811,4569,Soseaua Clinceni,,44.373084,25.954344,,,,
6821,4570,Monumentul Eroilor,,44.371911,25.949202,,,,
6822,4571,Primaria Clinceni,,44.377679,25.942552,,,,
6819,4572,Monumentul Eroilor,,44.371931,25.949126,,,,
6820,4573,Soseaua Clinceni,,44.373255,25.955985,,,,
6818,4574,Hotarului,,44.370971,25.959367,,,,
6795,4576,Gradinita Nr. 2,,44.386894,25.929368,,,,
6794,4577,Strada Sabarului Nr. 155,,44.385234,25.930916,,,,
6797,4578,Biserica Slobozia,,44.380934,25.935077,,,,
6796,4579,Strada Principala,,44.381751,25.93798,,,,
6799,4580,Strada Principala,,44.381668,25.938176,,,,
6800,4581,Biserica Slobozia,,44.380994,25.935087,,,,
6801,4582,Strada Sabarului Nr. 155,,44.384848,25.931213,,,,
6798,4583,Gradinita Nr. 2,,44.386517,25.929812,,,,
6781,4587,Biserica Sfantul Nicolae,,44.448574,26.205237,,,,
6780,4588,Biserica Sfantul Nicolae,,44.448253,26.205261,,,,
6779,4589,Putul Olteni,,44.401919,25.955267,,,,
6783,4590,Putul Olteni,,44.402354,25.956295,,,,
6785,4594,Piata Pucheni,,44.390439,26.063575,,,,
6786,4595,Bacau,,44.393086,26.065913,,,,
6784,4596,Piata Pucheni,,44.391037,26.064069,,,,
6771,4598,Str. Ciorogarlei,,44.396141,25.946334,,,,
6770,4599,Strada Ciorogarlei,,44.396629,25.946039,,,,
3532,46,Depoul Alexandria,,44.399165,26.046913,,,,
3305,460,11 Iunie,,44.423852,26.095029,,,,
6241,4600,Crizantemelor,,44.398824,25.949524,,,,
6240,4601,Crizantemelor,,44.398992,25.949955,,,,
6237,4602,Ciocarliei 79,,44.390825,25.938965,,,,
6236,4603,Ciocarliei 79,,44.390963,25.93948,,,,
6239,4604,Cartier Confort Urban,,44.385785,26.059438,,,,
6238,4605,Cartier Confort Urban,,44.385848,26.05955,,,,
6248,4606,Bragadiru,,44.365617,25.971732,,,,
6247,4607,C.E.T. Vest Militari,,44.422263,25.983181,,,,
6250,4608,C.E.T. Vest Militari,,44.422214,25.982666,,,,
6226,4610,Faur,,44.427319,26.179339,,,,
6224,4616,Macului,,44.32248,26.178582,,,,
6231,4617,Cazanului,,44.30437,26.189314,,,,
6230,4618,Berceni,,44.297082,26.191288,,,,
6229,4619,Berceni,,44.297318,26.191352,,,,
6280,4620,Cazanului,,44.304987,26.189377,,,,
6279,4621,Macului,,44.323083,26.178248,,,,
6281,4623,Parcul Mogosoaia,,44.523742,26.005585,,,,
6283,4624,Palatul Brancovenesc,,44.528622,26.00055,,,,
6282,4625,Intrarea Noua,,44.533728,25.9955,,,,
6284,4626,IPSO,,44.536266,25.990219,,,,
6285,4629,IPSO,,44.536091,25.990665,,,,
3306,463,Delea Veche,,44.431818,26.129528,,,,
6278,4630,Intrarea Noua,,44.533927,25.995206,,,,
6260,4631,Palatul Brancovenesc,,44.528887,26.000175,,,,
6259,4632,Parcul Mogosoaia,,44.524066,26.005015,,,,
6264,4635,Bd. Carol I,,44.436758,26.110474,,,,
6263,4636,Batistei,,44.439882,26.108767,,,,
6262,4637,Bd. Lacul Tei,,44.458096,26.106343,,,,
6261,4638,Muzeul Aviatiei,,44.475852,26.107036,,,,
6266,4639,Bd. Lacul Tei,,44.456219,26.105549,,,,
3307,464,11 Iunie,,44.424282,26.095793,,,,
6258,4640,Soseaua Stefan cel Mare,,44.453713,26.10482,,,,
6334,4642,Piata Sf. Gheorghe,,44.431779,26.105418,,,,
6335,4643,Muzeul Aviatiei,,44.474509,26.107497,,,,
6337,4645,Chiajna,,44.455674,25.959328,,,,
6330,4646,Chiajna,,44.456045,25.961141,,,,
6331,4647,Policlinica,,44.452858,25.996351,,,,
6332,4648,Biblioteca Academiei Romane,,44.444717,26.088579,,,,
6333,4649,Bisericii,,44.454584,25.988564,,,,
9033,465,Facultatea de Medicina,,44.434291,26.071433,,,,
6314,4650,Statuie,,44.456887,25.967227,,,,
6316,4651,Statuie,,44.456867,25.967535,,,,
6315,4652,Policlinica,,44.453129,25.994781,,,,
6313,4653,Popasul Randunica,,44.451797,26.000764,,,,
6311,4655,Bisericii,,44.454536,25.988497,,,,
6312,4656,Popasul Randunica,,44.452183,25.999285,,,,
6309,4657,Scoala de Aplicatie,,44.44918,26.013517,,,,
6310,4658,Eminescu,,44.452625,26.010915,,,,
6308,4659,Preot Sebe Costin,,44.460169,25.985729,,,,
6295,4660,Teodor Mazilu,,44.394484,26.060928,,,,
6294,4661,Confort Urban,,44.387397,26.059168,,,,
6293,4662,Piata Pucheni,,44.391003,26.063509,,,,
6292,4663,Splaiul Unirii,,44.395098,26.212676,,,,
6379,4664,Ghencea,,44.414802,26.045969,,,,
6380,4665,Ghencea,,44.414908,26.045776,,,,
6381,4666,Bd. Preciziei,,44.432225,26.005202,,,,
6383,4668,Hatisului,,44.445418,26.168903,,,,
6384,4669,Stancii,,44.44844,26.173434,,,,
3309,467,Horei,,44.441508,26.124161,,,,
6366,4671,Tipografie,,44.455579,26.180267,,,,
6368,4673,Dobrogeanu Gherea,,44.455583,26.185339,,,,
6367,4674,Condu Stelian,,44.452675,26.185406,,,,
6362,4675,Dascalu Gheorghe,,44.448981,26.185469,,,,
6363,4676,Vasile Alecsandri,,44.449779,26.182744,,,,
6360,4677,Cuza Voda,,44.450327,26.179432,,,,
6361,4678,Monument,,44.451991,26.17909,,,,
6365,4679,Stancii,,44.447942,26.172621,,,,
3310,468,Soseaua Mihai Bravu,,44.444109,26.130061,,,,
6341,4680,Hatisului,,44.445037,26.168245,,,,
6338,4681,Soseaua Stefan cel Mare,,44.452659,26.105214,,,,
6345,4683,Colegiul National I.L. Caragiale,,44.458256,26.095691,,,,
6344,4684,Colegiul National I.L. Caragiale,,44.457182,26.096207,,,,
3763,4685,Colegiul Economic Virgil Madgearu,,44.446701,26.100894,,,,
6394,4686,Colegiul National Victor Babes,,44.462047,26.159021,,,,
6393,4687,Universitatea Tehnica de Constructii,,44.463591,26.124075,,,,
6392,4688,Universitatea Tehnica de Constructii,,44.463478,26.123418,,,,
6391,4689,Universitatea Bioterra,,44.499848,26.067351,,,,
3311,469,Soseaua Iancului,,44.443577,26.149324,,,,
6404,4690,Universitatea Bioterra,,44.499769,26.067435,,,,
6402,4691,Casa de Cultura,,44.505863,25.985775,,,,
6403,4692,Primaria Chitila,,44.508666,25.981365,,,,
6400,4693,Primaria Chitila,,44.508683,25.981033,,,,
6401,4694,Casa de Cultura,,44.506198,25.985084,,,,
6398,4695,Ovo Design,,44.501905,25.991661,,,,
6399,4696,Preot Sebe Costin,,44.459897,25.986293,,,,
6386,4697,Apusului,,44.444148,26.019233,,,,
6387,4699,Teatrul Metropolis,,44.447241,26.108123,,,,
3530,47,Antiaeriana,,44.400447,26.050417,,,,
6162,4702,Hristo Botev,,44.434431,26.107795,,,,
6158,4703,Economu Atanase Stoicescu,,44.443465,26.057285,,,,
6160,4704,Universitatea Politehnica,,44.444185,26.053592,,,,
3898,4705,Universitatea Politehnica,,44.434338,26.049825,,,,
3901,4706,Universitatea Politehnica,,44.434532,26.048351,,,,
6152,4707,Tineretului 13,,44.442071,25.984011,,,,
6154,4708,Gladiolelor,,44.441573,25.987206,,,,
6149,4709,Gladiolelor,,44.442626,25.987392,,,,
6194,4710,Rezervelor 67,,44.444945,25.987411,,,,
6195,4711,Biserica,,44.448408,25.987074,,,,
6188,4713,Tineretului,,44.449299,25.981415,,,,
6181,4716,Leordeni,,44.378686,26.22179,,,,
6183,4717,Constructorilor,,44.36916,26.042386,,,,
6184,4718,Pruni,,44.329661,25.988975,,,,
6185,4719,Mogosoaia,,44.540833,25.980051,,,,
3570,472,Piata Unirii,,44.426577,26.100225,,,,
7539,4720,Domnesti,,44.405763,25.893004,,,,
7540,4722,Otopeni,,44.58395,26.070854,,,,
7538,4723,Bd. Biruintei,,44.445341,26.201698,,,,
7705,4724,Revolutiei,,44.452926,26.205651,,,,
7706,4725,Mihai Eminescu,,44.456107,26.208119,,,,
7707,4726,Cimitir II Parohial,,44.460097,26.21062,,,,
7710,4728,Avicola,,44.462634,26.211437,,,,
7711,4729,Cimitir II Parohial,,44.459791,26.210387,,,,
3564,473,Patriarhia Romana,,44.423663,26.09552,,,,
7712,4730,Mihai Eminescu,,44.455856,26.207868,,,,
7528,4731,Policlinica,,44.451465,26.205906,,,,
7527,4732,Scoala Generala Nr. 1,,44.448201,26.21016,,,,
7526,4733,Bd. Biruintei,,44.445755,26.201781,,,,
7523,4735,Teatrul Bulandra,,44.43362,26.08859,,,,
6778,474,C.F.R. Centura,,44.514444,26.016472,,,,
7509,4744,Romprim,,44.383111,26.147252,,,,
3489,4745,Pasaj Mihai Bravu,,44.407916,26.12135,,,,
3487,4746,Pasaj Mihai Bravu,,44.408077,26.121493,,,,
3491,4747,Piata Sudului,,44.394348,26.119874,,,,
3490,4748,Piata Sudului,,44.394234,26.120074,,,,
3567,475,Gramont,,44.421099,26.095603,,,,
7494,4758,Oficiul Postal,,44.327084,26.175027,,,,
7493,4759,Oficiul Postal,,44.327475,26.174884,,,,
3565,476,Soseaua Progresului,,44.415064,26.077318,,,,
3731,4760,Piata Resita,,44.379461,26.099032,,,,
7470,4766,Calea Crangasi,,44.453406,26.045635,,,,
7466,4767,Calea Crangasi,,44.452745,26.046505,,,,
7467,4768,Teghes,,44.379633,25.870013,,,,
6782,477,Pod Eroilor,,44.435414,26.075248,,,,
3453,4770,Opera Comica Pentru Copii,,44.454533,26.056932,,,,
3452,4771,Opera Comica Pentru Copii,,44.454229,26.057197,,,,
8739,4772,Vidra,,44.259341,26.188778,,,,
8364,4775,Ordoreanu,,44.361463,25.887142,,,,
8368,4777,Ostratu,,44.614281,26.014997,,,,
8759,4779,Varteju,,44.362126,25.985834,,,,
7464,4780,ELI-NP Magurele,,44.348241,26.050623,,,,
8666,4782,Dragomiresti Deal,,44.473024,25.912446,,,,
7463,4784,Parcul Regele Mihai I,,44.473486,26.089253,,,,
7422,4785,Parcul Regele Mihai I,,44.473268,26.088376,,,,
7423,4786,Gradinita Universul Copiilor,,44.403433,25.953239,,,,
7424,4787,Gradinita Universul Copiilor,,44.403389,25.953972,,,,
3406,4788,Piata Sf. Gheorghe,,44.43255,26.106364,,,,
3569,479,Mihai Eminescu,,44.446563,26.113145,,,,
8845,4790,Dantelei 2,,44.403228,26.013002,,,,
8846,4791,Dantelei 34,,44.400738,26.008499,,,,
8847,4792,Margelelor,,44.398607,26.004524,,,,
8848,4793,Parfumului (Bragadiru),,44.398341,26.005358,,,,
8849,4794,Parfumului 27,,44.400016,26.008484,,,,
8850,4795,Gladiolelor,,44.402848,26.013721,,,,
7401,4796,Atomistilor 94,,44.354106,26.034508,,,,
7402,4797,Institutul IFIN,,44.351786,26.043111,,,,
7399,4799,Institutul IFIN,,44.351803,26.043222,,,,
3523,48,Margeanului,,44.403326,26.057677,,,,
3561,480,Soseaua Stefan cel Mare,,44.451657,26.119736,,,,
8624,4800,Gradinita Program Prelungit,,44.337757,26.069346,,,,
8627,4802,Policlinica,,44.331765,26.076492,,,,
8628,4803,Gradinita Nr. 2,,44.32892,26.079176,,,,
8629,4804,Politie,,44.329459,26.078351,,,,
8623,4805,Odai,,44.34244,26.079441,,,,
8630,4806,Libertatii,,44.337936,26.080351,,,,
8482,4807,Bradului,,44.360476,25.968124,,,,
8483,4808,Biserica,,44.340306,25.941803,,,,
8484,4809,Biserica,,44.340565,25.941786,,,,
3562,481,Bd. Lacul Tei,,44.461541,26.119207,,,,
8490,4810,Bradului,,44.360526,25.968408,,,,
7776,4813,Duculescu,,44.407219,25.88767,,,,
7780,4814,Ghioceilor,,44.407616,25.883061,,,,
7781,4815,Spalatorie Auto,,44.409675,25.882287,,,,
3559,482,Teiul Doamnei,,44.464245,26.125679,,,,
7778,4820,Spalatorie Auto,,44.40928,25.882236,,,,
7777,4821,Ghioceilor,,44.407552,25.883196,,,,
7782,4822,Duculescu,,44.407061,25.887895,,,,
7783,4823,Domnesti,,44.405762,25.892755,,,,
8632,4829,Cimitir Jilava,,44.353583,26.08514,,,,
3560,483,Lacul Tei,,44.46649,26.127246,,,,
8496,4831,Aerodrom,,44.365873,25.913199,,,,
8497,4832,Aerodrom,,44.366004,25.913579,,,,
3554,484,Strandul Tei,,44.471788,26.124352,,,,
8635,4840,Libertatii,,44.336738,26.079773,,,,
8931,4843,Nucului,,44.261198,26.109187,,,,
8930,4847,Nucului,,44.260999,26.108797,,,,
3553,485,Soseaua Fabrica de Glucoza,,44.478512,26.125268,,,,
7791,4856,Curba,,44.524833,26.251251,,,,
7792,4857,Biserica Noua,,44.524019,26.255422,,,,
7793,4858,Scoala Generala,,44.523061,26.261575,,,,
7794,4859,Frasinului,,44.522153,26.265434,,,,
3552,486,Rocin,,44.482403,26.121536,,,,
7796,4860,Batal,,44.519842,26.275202,,,,
7795,4861,Cimitir,,44.52132,26.269048,,,,
7797,4862,La Ciresi,,44.51849,26.280996,,,,
7798,4863,Intrare Sindrilita,,44.513092,26.314602,,,,
7799,4864,Sindrilita,,44.516381,26.319518,,,,
7800,4865,Intrare Sindrilita,,44.51326,26.314648,,,,
7801,4866,La Ciresi,,44.518889,26.279717,,,,
7802,4867,Batal,,44.520107,26.274629,,,,
7803,4868,Cimitir,,44.521634,26.268131,,,,
7804,4869,Frasinului,,44.522432,26.264722,,,,
3550,487,Electronica,,44.48067,26.115505,,,,
7805,4870,Scoala Generala,,44.523321,26.260583,,,,
7806,4871,Biserica Noua,,44.524199,26.255326,,,,
7807,4872,Curba,,44.52533,26.251556,,,,
7772,4879,Straulesti,,44.503222,26.024745,,,,
3558,488,Platforma Industriala Pipera,,44.479839,26.111041,,,,
7773,4880,Straulesti,,44.503591,26.023711,,,,
8510,4884,Constructorilor,,44.36986,26.042898,,,,
3556,489,Platforma Industriala Pipera,,44.479382,26.110913,,,,
8932,4897,La Botea,,44.256899,26.098903,,,,
8511,4898,Inului,,44.345464,26.036472,,,,
8512,4899,Urlatoare,,44.343039,26.043084,,,,
3522,49,Piata Rahova,,44.406836,26.064849,,,,
3607,490,Electronica,,44.480523,26.11517,,,,
8608,4900,Parc,,44.341072,26.050542,,,,
8609,4901,Fabricii,,44.338142,26.05747,,,,
8625,4902,Mierlari,,44.333672,26.06546,,,,
8601,4904,Morii,,44.332493,26.070909,,,,
8602,4905,Mierlari,,44.333746,26.065509,,,,
8603,4906,Fabricii,,44.338556,26.056625,,,,
8604,4907,Parc,,44.341393,26.049795,,,,
8606,4908,Urlatoarea,,44.343599,26.041587,,,,
8607,4909,Inului,,44.345945,26.035626,,,,
3603,491,Rocin,,44.482357,26.121409,,,,
8611,4910,Unirii,,44.35127,26.020366,,,,
7779,4911,Darvari,,44.414118,25.877652,,,,
8612,4912,Piata Sudului,,44.392639,26.123738,,,,
3604,492,Soseaua Fabrica de Glucoza,,44.478769,26.125239,,,,
3605,493,Strandul Tei,,44.471756,26.124374,,,,
3606,494,Lacul Tei,,44.466576,26.127205,,,,
3826,4945,Piata Romana,,44.447314,26.095624,,,,
6927,4947,Complex Comercial Titan,,44.40619,26.200917,,,,
6928,4948,Complex Comercial Titan,,44.407,26.198865,,,,
3600,495,Grigore Moisil,,44.461939,26.119348,,,,
7713,4951,Tufanelelor,,44.439437,26.005796,,,,
3599,496,Reinvierii,,44.455524,26.121112,,,,
11100,4965,Monument,,44.450998,26.178939,,,,
7761,4968,Peris,,44.677967,25.997394,,,,
3602,497,Mihai Eminescu,,44.446889,26.113448,,,,
8696,4971,Anghel Saligny,,44.405119,26.208446,,,,
10116,4973,Manolache,,44.403277,26.247995,,,,
8711,4974,Anghel Saligny,,44.40601,26.205407,,,,
10773,4976,Merii Petchii,,44.741839,26.309327,,,,
8784,4978,Sitaru,,44.669215,26.343952,,,,
8920,4979,Copaceni,,44.265409,26.118398,,,,
3601,498,Piata Gemeni,,44.444955,26.111241,,,,
8772,4980,Darasti,,44.307345,26.027979,,,,
8350,4981,Pacii,,44.432921,26.005577,,,,
8351,4982,Zurbaua,,44.493553,25.909587,,,,
8353,4990,Branesti,,44.445025,26.349598,,,,
10120,4991,Cernica,,44.414863,26.282596,,,,
8354,4996,Biserica Sf. Nicolae,,44.448063,26.205841,,,,
8355,4997,Rascoalei,,44.449262,26.216058,,,,
8356,4998,Sfantul Calinic,,44.449872,26.223173,,,,
8357,4999,Sos. Cernica,,44.448254,26.211643,,,,
3140,5,Laborator,,44.417218,26.134979,,,,
3383,500,Posta Vitan,,44.423946,26.122691,,,,
3381,501,Policlinica Vitan,,44.423513,26.126752,,,,
3382,502,Depoul Dudesti,,44.421859,26.13119,,,,
7573,5031,Piata Revolutiei,,44.438116,26.097227,,,,
7575,5032,CEC,,44.43125,26.096843,,,,
7577,5033,Palatul Parlamentului,,44.429309,26.090967,,,,
7582,5036,Cartier Fortuna,,44.38981,26.00583,,,,
7597,5038,Ambasada S.U.A.,,44.514477,26.082676,,,,
7596,5039,Ambasada S.U.A.,,44.514573,26.082686,,,,
8464,5040,Strada 24 Ianuarie,,44.46429,26.38608,,,,
8458,5041,Campului,,44.45036,26.228621,,,,
10088,5042,Poet George Tarnea 2,,44.440762,26.253805,,,,
8459,5043,Gara Pasarea,,44.452244,26.24985,,,,
8460,5044,Gradinarilor,,44.453109,26.258504,,,,
8461,5045,Parc,,44.462666,26.327448,,,,
8462,5046,Sos. Cozieni,,44.456088,26.280343,,,,
8463,5048,Branesti-Gara,,44.45905,26.334249,,,,
8474,5049,Liceul Theodor Pietraru,,44.461378,26.329152,,,,
8473,5050,Liceul Theodor Pietraru,,44.462168,26.328699,,,,
8465,5052,Sos. Cozieni,,44.456151,26.279521,,,,
8466,5053,Florarie,,44.462623,26.329632,,,,
8467,5054,Gradinarilor,,44.45305,26.257503,,,,
8468,5055,Gara Pasarea,,44.452253,26.24935,,,,
10111,5056,Poet George Tarnea 2,,44.440875,26.253491,,,,
8470,5057,Campului,,44.450444,26.2287,,,,
8471,5058,Strada 24 Ianuarie,,44.464803,26.386174,,,,
8472,5059,Sos. Cernica,,44.448186,26.211005,,,,
8475,5060,Sfantul Calinic,,44.449869,26.2215,,,,
8476,5061,Rascoalei,,44.449238,26.215262,,,,
8614,5066,Piata Eroii Revolutiei,,44.403671,26.096887,,,,
10087,5067,Strandului,,44.442451,26.24343,,,,
10090,5068,Gabriela Gegolea,,44.434008,26.26853,,,,
10091,5069,Aventura Parc,,44.431252,26.271961,,,,
10095,5072,Traian,,44.415535,26.28269,,,,
10096,5073,Teren Fotbal,,44.410248,26.270675,,,,
10097,5074,Tineretului,,44.410676,26.264787,,,,
10098,5075,Nucilor,,44.412668,26.262863,,,,
10099,5076,Pescarilor,,44.413831,26.260634,,,,
10100,5077,Pescarilor,,44.414185,26.259339,,,,
10101,5078,Nucilor,,44.412363,26.263399,,,,
10102,5079,Tineretului,,44.410234,26.265585,,,,
10103,5080,Teren Fotbal,,44.410304,26.271306,,,,
10104,5081,Traian,,44.415595,26.282754,,,,
10108,5084,Aventura Parc,,44.431119,26.27221,,,,
10109,5085,Gabriela Gegolea,,44.434418,26.268101,,,,
10085,5086,Caldararu,,44.416933,26.253135,,,,
10112,5087,Strandului,,44.44236,26.244071,,,,
3541,51,Petre Ispirescu,,44.410498,26.070005,,,,
3169,510,Bd. 1 Decembrie 1918,,44.410683,26.173781,,,,
10119,5103,CFR Balaceanca,,44.405496,26.278141,,,,
8566,5104,Turcu,,44.457201,26.33399,,,,
8567,5105,Gradinita Branesti,,44.456247,26.336335,,,,
8568,5106,Branesti-Targ,,44.455382,26.342439,,,,
8569,5107,Cabana,,44.453109,26.343777,,,,
8570,5108,Gradinita Branesti,,44.456572,26.335677,,,,
8571,5109,Branesti-Targ,,44.455535,26.342502,,,,
3167,511,Ozana,,44.410121,26.177588,,,,
3166,512,I.O.R. 2,,44.409209,26.183532,,,,
8714,5121,Piteasca DJ 100,,44.488828,26.325444,,,,
8715,5122,Piteasca 1,,44.49385,26.32769,,,,
8717,5123,Piteasca 1,,44.493545,26.32752,,,,
8718,5124,Piteasca DJ 100,,44.488644,26.32547,,,,
8712,5126,Cozieni-DJ100,,44.478484,26.300136,,,,
3163,513,Stirom,,44.408307,26.189231,,,,
8583,5133,Florarie,,44.462589,26.329774,,,,
8585,5134,Primaria Branesti,,44.463325,26.335617,,,,
8586,5135,Negru Voda,,44.464016,26.340923,,,,
10094,5137,Tudor Arghezi,,44.418912,26.277945,,,,
8592,5138,Gradinita Islaz,,44.461036,26.385883,,,,
8593,5139,Gradinita Islaz,,44.46113,26.38599,,,,
3184,514,Policolor,,44.40749,26.194288,,,,
10105,5140,Tudor Arghezi,,44.418816,26.278229,,,,
8590,5142,Negru Voda,,44.463952,26.339872,,,,
8591,5143,Primaria Branesti,,44.463342,26.335086,,,,
10799,5144,Stadion,,44.538574,26.204052,,,,
10745,5145,Scoala Generala,,44.538131,26.201449,,,,
10747,5146,Boltas,,44.538608,26.20752,,,,
10750,5147,Calea Bucuresti,,44.595934,26.239568,,,,
10748,5148,Narciselor,,44.541018,26.20924,,,,
10751,5149,Victoriei,,44.599281,26.23997,,,,
3181,515,Chimopar,,44.406715,26.199118,,,,
10752,5150,Jiului,,44.601124,26.233305,,,,
10753,5151,Mures,,44.60196,26.226233,,,,
10754,5152,Scolii,,44.60378,26.221392,,,,
10755,5153,Crizantemelor,,44.606744,26.218916,,,,
10756,5154,Lalelelor,,44.610708,26.218075,,,,
10757,5155,Padurea Blidaru,,44.62973,26.221528,,,,
10758,5156,Bucovina,,44.633858,26.22241,,,,
10759,5157,Bariera CFR,,44.637437,26.223164,,,,
10760,5158,Regele Ferdinand I,,44.641869,26.222603,,,,
10761,5159,Scoala II,,44.64357,26.226818,,,,
10762,5160,Moara Vlasiei,,44.645149,26.231295,,,,
10764,5161,Manastirea Caldarusani,,44.676695,26.256053,,,,
10765,5162,Benzinarie,,44.704832,26.262345,,,,
10766,5163,Lipia-Centru,,44.713448,26.262361,,,,
10767,5164,Bojdani,,44.714238,26.272719,,,,
10768,5165,Abator,,44.71976,26.270397,,,,
10769,5166,Biserica Nuci,,44.720454,26.297611,,,,
10770,5167,Calea Bucuresti,,44.72074,26.302933,,,,
10771,5168,Stadionul Merii Petchii,,44.735066,26.299891,,,,
10774,5169,Biserica Merii Petchii,,44.73422,26.299006,,,,
10775,5170,Calea Bucuresti,,44.720785,26.302369,,,,
10776,5171,Biserica Nuci,,44.720462,26.296967,,,,
10777,5172,Abator,,44.719467,26.270649,,,,
10778,5173,Bojdani,,44.714302,26.272849,,,,
10779,5174,Lipia-Centru,,44.712853,26.262453,,,,
10780,5175,Benzinarie,,44.706029,26.262442,,,,
10781,5176,Manastirea Caldarusani,,44.676958,26.256133,,,,
10783,5177,Moara Vlasiei,,44.645027,26.230841,,,,
10784,5178,Scoala II,,44.643486,26.226275,,,,
10785,5179,Regele Ferdinand I,,44.641868,26.222513,,,,
3706,518,Orizont,,44.425433,26.053465,,,,
10786,5180,Bariera CFR,,44.636962,26.222984,,,,
10787,5181,Bucovina,,44.633398,26.222236,,,,
10788,5182,Padurea Blidaru,,44.615985,26.218531,,,,
10789,5183,Lalelelor,,44.610361,26.21795,,,,
10790,5184,Crizantemelor,,44.606521,26.218955,,,,
10791,5185,Scolii,,44.602992,26.222635,,,,
10792,5186,Mures,,44.601762,26.226581,,,,
10793,5187,Jiului,,44.600959,26.233556,,,,
10794,5188,Victoriei,,44.599104,26.240346,,,,
10797,5189,Narciselor,,44.541244,26.209667,,,,
10795,5190,Calea Bucuresti,,44.595352,26.239256,,,,
10798,5191,Boltas,,44.538781,26.206942,,,,
10800,5192,Scoala Generala,,44.537949,26.200922,,,,
10796,5193,Biserica Boltas,,44.542249,26.211295,,,,
8781,5199,Gradistea DJ 101 4,,44.662167,26.304161,,,,
3543,52,Calea Ferentari,,44.413512,26.074458,,,,
8780,5200,Gradistea DJ 101 3,,44.662079,26.29553,,,,
8782,5201,Sitaru 1,,44.666112,26.324766,,,,
8783,5202,Sitaru 2,,44.667803,26.330597,,,,
8785,5203,Sitaru 2,,44.667597,26.329842,,,,
8786,5204,Sitaru 1,,44.666271,26.325338,,,,
8788,5205,Gradistea DJ 101 3,,44.662155,26.295471,,,,
8787,5206,Gradistea DJ 104 4,,44.662117,26.302686,,,,
8619,5210,Prefabricate,,44.360464,26.086773,,,,
8620,5211,Vasile Roaita,,44.356544,26.085714,,,,
8621,5212,Cartier Tabacarie,,44.350918,26.084245,,,,
8622,5213,Cartier Arteca,,44.348059,26.083497,,,,
8922,5214,Carpati,,44.282055,26.065329,,,,
8921,5215,Liviu Rebreanu,,44.284732,26.060938,,,,
8923,5216,Blocuri,,44.276663,26.071727,,,,
8924,5217,Morii,,44.273737,26.074724,,,,
8925,5218,Primaria Copaceni,,44.271976,26.079594,,,,
8926,5219,Gradinita,,44.270371,26.084101,,,,
3200,522,Chimopar,,44.406858,26.19847,,,,
8927,5220,La Troita,,44.266554,26.089765,,,,
8928,5221,Scoala Noua,,44.262375,26.0923,,,,
8929,5222,Biserica Vale,,44.257594,26.094765,,,,
8933,5223,Biserica Vale,,44.25792,26.094794,,,,
8934,5224,Scoala Noua,,44.262654,26.092216,,,,
8935,5225,La Troita,,44.266719,26.089745,,,,
8936,5226,Gradinita,,44.270661,26.083503,,,,
8937,5227,Primaria Copaceni,,44.271895,26.080023,,,,
8938,5228,Morii,,44.273753,26.074768,,,,
8939,5229,Miron Cristea,,44.277536,26.071109,,,,
3208,523,Policolor,,44.407592,26.193906,,,,
8940,5230,Carpati,,44.282153,26.06523,,,,
8631,5231,Cartier Arteca,,44.348615,26.083812,,,,
8633,5233,Vasile Roaita,,44.356548,26.085896,,,,
8634,5234,Prefabricate,,44.361848,26.087318,,,,
10692,5238,Garii,,44.326401,26.083978,,,,
10695,5239,PGB,,44.318536,26.102103,,,,
3206,524,Stirom,,44.408441,26.188632,,,,
10696,5240,Rromi,,44.313017,26.109278,,,,
10698,5242,Monumentului,,44.302406,26.118153,,,,
10699,5243,Linia Garii,,44.300283,26.119698,,,,
10700,5244,Seicaru,,44.294256,26.125972,,,,
10701,5245,Sala de sport,,44.288826,26.131966,,,,
10702,5246,Marului,,44.286414,26.132756,,,,
10703,5247,Scoala,,44.281916,26.133727,,,,
10706,5249,La Dana,,44.271746,26.145616,,,,
3216,525,I.O.R. 2,,44.409335,26.182952,,,,
10707,5250,Ciulinari,,44.271515,26.148936,,,,
10708,5251,Centru Plasament,,44.267007,26.152375,,,,
10709,5252,Posta,,44.264521,26.154106,,,,
10710,5253,Profesor Dragomir,,44.262716,26.161956,,,,
8735,5254,Profesor Radu,,44.260611,26.167674,,,,
8737,5255,Biserica Vidra,,44.259112,26.173913,,,,
8738,5256,Primaverii,,44.257879,26.179165,,,,
8740,5257,Primaverii,,44.258229,26.177968,,,,
8741,5258,Biserica Vidra,,44.259327,26.173293,,,,
8742,5259,Profesor Radu,,44.260914,26.166802,,,,
3214,526,Ozana,,44.410244,26.177038,,,,
10711,5260,Profesor Dragomir,,44.262977,26.161269,,,,
10712,5261,Posta,,44.264561,26.153312,,,,
10713,5262,Centru Plasament,,44.267768,26.151849,,,,
10714,5263,Ciulinari,,44.271984,26.148296,,,,
10715,5264,La Dana,,44.272258,26.144655,,,,
10718,5266,Scoala,,44.282731,26.133856,,,,
10719,5267,Marului,,44.287171,26.132653,,,,
10720,5268,Sala de sport,,44.289332,26.131864,,,,
10721,5269,Seicaru,,44.294743,26.12548,,,,
3218,527,Bd. 1 Decembrie 1918,,44.410817,26.173105,,,,
10722,5270,Linia Garii,,44.300492,26.119624,,,,
10723,5271,Monumentului,,44.302986,26.117854,,,,
10725,5273,Rromi,,44.313166,26.109278,,,,
10726,5274,PGB,,44.318859,26.101903,,,,
10728,5275,Matias,,44.326688,26.088727,,,,
10693,5276,Matias,,44.326731,26.089303,,,,
10694,5277,Prelungirea Ungureni,,44.325151,26.092838,,,,
10727,5278,Prelungirea Ungureni,,44.325372,26.092586,,,,
7744,5284,Petresti,,44.601923,26.071779,,,,
7749,5286,Unirii,,44.609819,26.072446,,,,
7748,5288,Crangului,,44.620153,26.069627,,,,
7747,5289,Fermei,,44.623319,26.069465,,,,
7756,5296,Snagov Plaza,,44.66735,26.076806,,,,
7759,5298,Pescarilor,,44.675214,26.074585,,,,
8469,5299,Tancabesti,,44.678703,26.075567,,,,
3546,53,Soseaua Progresului,,44.41607,26.079307,,,,
8514,5301,Manastirii,,44.715098,26.100077,,,,
8518,5302,Palat Snagov,,44.726912,26.109374,,,,
8519,5303,Fermei,,44.739067,26.115017,,,,
8520,5304,Tiganesti,,44.743058,26.128621,,,,
8521,5305,Parcului,,44.743685,26.140296,,,,
8522,5306,Drumul Coadelor,,44.743227,26.150181,,,,
8523,5307,Pescari,,44.735372,26.157263,,,,
8524,5308,Manastirea Vlad Tepes,,44.736577,26.163231,,,,
8525,5309,Baza Sportiva,,44.737336,26.169839,,,,
8515,5310,Biserica Sf Nicolae,,44.744285,26.178433,,,,
8516,5311,Dispensar,,44.747815,26.186627,,,,
8517,5312,Gradinarului,,44.750592,26.192134,,,,
8530,5313,Lunca Ialomitei,,44.750457,26.194297,,,,
8531,5314,Garii,,44.736537,26.210606,,,,
8532,5315,Ungureni,,44.734949,26.213466,,,,
8533,5316,Cameliei,,44.734114,26.217679,,,,
8534,5317,Nucului,,44.731896,26.221173,,,,
8535,5318,Biserica Gruiu,,44.728896,26.225006,,,,
8536,5319,Primaria Gruiu,,44.725192,26.227466,,,,
8526,5320,Primaria Gruiu,,44.725245,26.227483,,,,
8527,5321,Biserica Gruiu,,44.729082,26.224853,,,,
8528,5322,Nucului,,44.732198,26.220888,,,,
8529,5323,Cameliei,,44.734314,26.217274,,,,
8545,5324,Ungureni,,44.735087,26.212705,,,,
8546,5325,Garii,,44.736302,26.211033,,,,
8547,5326,Lunca Ialomitei,,44.750457,26.194426,,,,
8548,5327,Gradinarului,,44.75042,26.191685,,,,
8549,5328,Dispensar,,44.747642,26.186165,,,,
8550,5329,Biserica Sf Nicolae,,44.744192,26.178357,,,,
8537,5330,Baza Sportiva,,44.73732,26.169241,,,,
8539,5331,Manastirea Vlad Tepes,,44.736477,26.162637,,,,
8540,5332,Pescari,,44.735305,26.157117,,,,
8541,5333,Drumul Coadelor,,44.743511,26.150029,,,,
8542,5334,Parcului,,44.743711,26.139587,,,,
8556,5335,Tiganesti,,44.743218,26.129037,,,,
8557,5336,Fermei,,44.73904,26.114786,,,,
8558,5337,Calea Bucuresti,,44.72188,26.105207,,,,
8559,5338,Manastirii,,44.714069,26.098977,,,,
8560,5339,Cartier Tineret,,44.711644,26.097116,,,,
3108,534,Soseaua Mihai Bravu,,44.420123,26.137254,,,,
8552,5341,Tancabesti,,44.677976,26.075048,,,,
8553,5342,Pescarilor,,44.674695,26.074413,,,,
8555,5344,Snagov Plaza,,44.666558,26.076549,,,,
3106,535,Depoul Dudesti,,44.421602,26.13175,,,,
8562,5351,Fermei,,44.622842,26.069326,,,,
8563,5352,Crangului,,44.620048,26.069466,,,,
8564,5354,Unirii,,44.607786,26.072059,,,,
8565,5356,Petresti,,44.600356,26.071403,,,,
3111,536,Policlinica Vitan,,44.423455,26.127281,,,,
8572,5362,Radio,,44.668127,26.078609,,,,
8573,5363,Vladiceasca Padure,,44.669515,26.094131,,,,
8574,5364,Ciofliceni Padure,,44.672577,26.101857,,,,
8575,5365,La Matei,,44.682843,26.119127,,,,
8576,5366,Stadionului,,44.686065,26.129319,,,,
8577,5367,La Pinu,,44.688416,26.138295,,,,
8588,5368,La Cotet,,44.689318,26.143948,,,,
8589,5369,Scoala Ghermanesti,,44.688288,26.147109,,,,
3110,537,Posta Vitan,,44.423981,26.12201,,,,
8587,5370,Plopilor,,44.682683,26.154726,,,,
8578,5371,Ocolul Silvic,,44.699377,26.169366,,,,
8579,5372,Snagov Centru,,44.704892,26.171682,,,,
8580,5373,Posta Snagov,,44.708208,26.17448,,,,
8581,5374,Canton Silvic,,44.708725,26.181483,,,,
8582,5375,Astoria,,44.714233,26.193541,,,,
8584,5376,Gorunului,,44.722705,26.214001,,,,
3132,541,Piata Domenii,,44.465755,26.066475,,,,
8379,5410,Gorunului,,44.722705,26.213703,,,,
8380,5411,Astoria,,44.714031,26.192933,,,,
8386,5412,Canton Silvic,,44.708802,26.181417,,,,
8387,5413,Posta Snagov,,44.708242,26.174239,,,,
8388,5414,Centru Snagov,,44.704637,26.171619,,,,
8389,5415,Ocolul Silvic,,44.699151,26.169103,,,,
8390,5416,Plopilor,,44.68281,26.154698,,,,
8391,5417,Scoala Ghermanesti,,44.688494,26.1466,,,,
8392,5418,La Cotet,,44.689327,26.143382,,,,
8393,5419,La Pinu,,44.688337,26.137648,,,,
3131,542,Aviator Popisteanu,,44.468689,26.059291,,,,
8381,5420,Stadionului,,44.685933,26.128479,,,,
8383,5421,La Matei,,44.681771,26.117702,,,,
8385,5422,Ciofliceni Padure,,44.672526,26.101647,,,,
8396,5423,Vladiceasca Padure,,44.669483,26.093079,,,,
8397,5424,Radio,,44.66817,26.078221,,,,
7768,5427,Peris DJ 101B 3,,44.683234,26.041296,,,,
7767,5428,Peris DJ 101B 2,,44.682603,26.030377,,,,
7766,5429,Peris DJ 101B 1,,44.679836,26.029181,,,,
3135,543,Clabucet,,44.470948,26.052449,,,,
7764,5430,Primaria Peris,,44.678064,26.027518,,,,
7763,5431,Scolii,,44.678525,26.019475,,,,
7765,5432,Principala,,44.679048,26.015384,,,,
7762,5433,Sondei,,44.678516,26.004274,,,,
8405,5434,Sondei,,44.678522,26.005041,,,,
8406,5435,Principala,,44.678822,26.016112,,,,
8407,5436,Scolii,,44.67847,26.019615,,,,
8408,5437,Primaria Peris,,44.677976,26.027565,,,,
8409,5438,Peris DJ 101B 1,,44.679792,26.029259,,,,
8410,5439,Peris DJ 101B 2,,44.682559,26.030444,,,,
3133,544,Aviator Popisteanu,,44.468844,26.058819,,,,
8401,5440,Peris DJ 101B 3,,44.68315,26.04142,,,,
8793,5443,Casa de Cultura,,44.725836,26.090378,,,,
8796,5444,Mos Stanciu,,44.730059,26.093551,,,,
8794,5445,Campului,,44.736923,26.080789,,,,
8799,5447,Campului,,44.736991,26.08131,,,,
8800,5448,Mos Stanciu,,44.729923,26.093272,,,,
8801,5449,Casa de Cultura,,44.72591,26.090365,,,,
3144,545,Piata Domenii,,44.466122,26.065462,,,,
8802,5450,Primaria Ciolpani,,44.726118,26.101574,,,,
8412,5452,Penny,,44.598227,26.059235,,,,
8413,5453,Primaverii,,44.591348,26.026,,,,
8414,5454,Casa Tineretului,,44.604023,26.013868,,,,
8415,5455,Posta Ostratu,,44.610036,26.013363,,,,
8429,5458,Posta Ostratu,,44.61013,26.013382,,,,
8430,5459,Casa Tineretului,,44.604543,26.013772,,,,
3139,546,Bd. Maresal Averescu,,44.462371,26.072343,,,,
8416,5460,Primaverii,,44.591117,26.026129,,,,
8417,5461,Penny,,44.598259,26.059444,,,,
8418,5462,Sat Petresti,,44.60038,26.06373,,,,
8420,5464,Autoconf Textile,,44.613243,26.079169,,,,
8421,5465,Tarina Veche,,44.617287,26.085867,,,,
8442,5469,Stupinei,,44.621474,26.102169,,,,
3148,547,Republica,,44.433956,26.185315,,,,
3146,548,Grup Industrial Titan,,44.435082,26.178938,,,,
8445,5483,Scoala Nr 2,,44.623132,26.109678,,,,
8449,5487,Tarina Veche,,44.617217,26.085638,,,,
8450,5488,Autoconf Textile,,44.612839,26.078349,,,,
8457,5489,Politia Balotesti,,44.609519,26.07272,,,,
3152,549,Soseaua Morarilor,,44.43698,26.168561,,,,
8456,5490,Politia Balotesti,,44.610189,26.074039,,,,
3301,550,Baia de Arama,,44.436026,26.16418,,,,
10865,5500,Campului,,44.542114,26.142426,,,,
10864,5501,Marasesti,,44.545606,26.141989,,,,
10863,5502,Primaria Tunari,,44.548414,26.141496,,,,
3302,551,Bd. Nicolae Grigorescu,,44.435055,26.160456,,,,
3299,553,Patinoar,,44.433036,26.14902,,,,
10860,5536,Primaria Tunari,,44.548502,26.14141,,,,
10859,5537,Marasesti,,44.545302,26.141941,,,,
3295,554,Piata Hurmuzachi,,44.432148,26.139201,,,,
8730,5552,Lebedei,,44.294881,26.189655,,,,
8731,5553,Nuferilor,,44.291207,26.186782,,,,
8732,5554,Florilor,,44.288603,26.184768,,,,
8733,5555,Benzinarie,,44.283484,26.180766,,,,
8734,5556,Dealul Verde,,44.281837,26.17946,,,,
8736,5557,Moara,,44.263774,26.165583,,,,
8744,5558,Moara,,44.264419,26.166098,,,,
8743,5559,Dealul Verde,,44.281781,26.179508,,,,
3293,556,Vadul Nou,,44.393004,26.08268,,,,
8745,5560,Benzinarie,,44.284329,26.18153,,,,
8746,5561,Florilor,,44.288561,26.184813,,,,
8747,5562,Nuferilor,,44.291339,26.186989,,,,
8748,5563,Lebedei,,44.294933,26.189792,,,,
8757,5565,Strada Bucuresti,,44.359037,25.992807,,,,
8758,5566,Drum Nou,,44.361956,25.990676,,,,
3294,557,Valtoarei,,44.390085,26.080679,,,,
8834,5570,Unirea Principatelor,,44.307575,26.021132,,,,
8771,5571,Unirea Principatelor,,44.307819,26.021123,,,,
8538,5572,Unirii,,44.351289,26.020473,,,,
8839,5573,Primaria Darasti,,44.308902,26.017541,,,,
8761,5574,Urlatoarea,,44.343475,26.041736,,,,
8766,5575,Primaria Darasti,,44.308922,26.017506,,,,
8697,5576,Intrare Sat Catelu,,44.403864,26.213492,,,,
8698,5577,Statuie,,44.402549,26.216533,,,,
3289,558,Zetarilor,,44.386655,26.077945,,,,
8700,5580,Revolutiei,,44.386055,26.235625,,,,
8701,5581,Camin Cultural,,44.385771,26.241954,,,,
8706,5582,Camin Cultural,,44.38581,26.241741,,,,
8707,5583,Revolutiei,,44.386295,26.234584,,,,
8709,5586,Statuie,,44.40266,26.216398,,,,
8710,5587,Intrare Sat Catelu,,44.403895,26.213658,,,,
10114,5588,Zona Industriala,,44.40642,26.241205,,,,
8875,5589,Craitelor,,44.336473,26.061946,,,,
3291,559,Zetarilor,,44.386198,26.077989,,,,
10115,5590,Caminului,,44.405206,26.246383,,,,
8877,5591,Craitelor,,44.336998,26.061087,,,,
10705,5592,Preot Marinescu,,44.274566,26.139039,,,,
10716,5594,Preot Marinescu,,44.274924,26.138372,,,,
10117,5595,Caminului,,44.405197,26.246574,,,,
10118,5597,Zona Industriala,,44.406594,26.240534,,,,
8721,5598,Piata Sudului,,44.392449,26.122602,,,,
3304,560,Valtoarei,,44.389973,26.080679,,,,
3317,561,Vadul Nou,,44.39286,26.082658,,,,
8658,5613,General Eremia Grigorescu,,44.450515,26.00812,,,,
8359,5614,Pasaj,,44.455948,25.952842,,,,
8360,5615,Posta,,44.458901,25.947255,,,,
8361,5616,Complex,,44.461743,25.943414,,,,
8667,5617,1 Decembrie 1918,,44.463208,25.939009,,,,
8668,5618,Teilor,,44.465768,25.928223,,,,
8669,5619,Teilor,,44.465587,25.928678,,,,
3318,562,Piata Hurmuzachi,,44.431885,26.137807,,,,
8670,5620,1 Decembrie 1918,,44.463267,25.938471,,,,
8363,5621,Complex,,44.461431,25.943773,,,,
8365,5622,Posta,,44.458444,25.947809,,,,
8366,5623,Pasaj,,44.45578,25.953604,,,,
8369,5625,Cicoarei,,44.471723,25.943645,,,,
8370,5626,Cimitirul Vale,,44.474419,25.942024,,,,
8371,5627,Primaria Dragomiresti Vale,,44.475517,25.934329,,,,
8372,5628,Sanzienelor,,44.477229,25.932067,,,,
8362,5629,Nuferilor,,44.485995,25.917884,,,,
3319,563,Patinoar,,44.432944,26.148322,,,,
8373,5634,Nuferilor,,44.485834,25.918079,,,,
8374,5635,Sanzienelor,,44.476821,25.932565,,,,
8375,5636,Primaria Dragomiresti Vale,,44.475131,25.934753,,,,
8376,5637,Cimitirul Vale,,44.474415,25.941575,,,,
8377,5638,Cicoarei,,44.47136,25.943818,,,,
8671,5640,Calea Bucuresti 1,,44.439761,25.925909,,,,
8672,5641,Calea Bucuresti 2,,44.44049,25.917329,,,,
8673,5642,Calea Bucuresti 3,,44.441403,25.906613,,,,
8674,5643,Benzinarie,,44.442367,25.896918,,,,
8679,5644,Pod Darvari,,44.43139,25.877635,,,,
8681,5645,Tineretului,,44.427262,25.878052,,,,
8682,5646,1 Martie,,44.422332,25.878494,,,,
8683,5647,Barbu Lautaru,,44.420479,25.877277,,,,
8762,5648,Raurilor,,44.34096,26.040912,,,,
8763,5649,Sonde,,44.316694,26.020553,,,,
3312,565,Bd. Nicolae Grigorescu,,44.434827,26.159764,,,,
8684,5650,Barbu Lautaru,,44.420483,25.877545,,,,
8685,5651,1 Martie,,44.423162,25.878474,,,,
8680,5652,Tineretului,,44.427523,25.878083,,,,
8686,5653,Pod Darvari,,44.431821,25.877633,,,,
8691,5654,Benzinarie,,44.442296,25.897078,,,,
8692,5655,Calea Bucuresti 3,,44.441293,25.907515,,,,
8693,5656,Calea Bucuresti 2,,44.440394,25.918025,,,,
8694,5657,Calea Bucuresti 1,,44.439553,25.92786,,,,
7701,5658,Drumul La Rosu,,44.469378,26.025368,,,,
7702,5659,Drumul La Rosu,,44.469454,26.025455,,,,
3313,566,Baia de Arama,,44.435931,26.164082,,,,
7703,5660,Drumul La Rosu,,44.469339,26.02563,,,,
7704,5661,Drumul La Rosu,,44.469286,26.025919,,,,
8382,5662,Dncb,,44.451516,26.241939,,,,
8384,5663,Dncb,,44.451493,26.24052,,,,
10086,5664,Sos. Cernica 2,,44.443428,26.237234,,,,
10113,5665,Sos. Cernica 2,,44.443587,26.236639,,,,
8398,5666,Cabana,,44.453413,26.343729,,,,
8399,5667,Violetelor,,44.449348,26.346235,,,,
8400,5668,Violetelor,,44.45046,26.34553,,,,
3314,567,Lucretiu Patrascanu,,44.436826,26.168029,,,,
10858,5676,Campului,,44.541919,26.142287,,,,
8770,5677,Statia de Apa,,44.305684,26.020862,,,,
8767,5679,Magazin,,44.306228,26.013631,,,,
3315,568,Grup Industrial Titan,,44.435134,26.178293,,,,
8768,5680,Arges,,44.304312,26.011501,,,,
8769,5681,1 Decembrie 1918,,44.303114,26.013729,,,,
8832,5682,Mihai Eminescu,,44.306969,26.023599,,,,
8833,5683,Mihai Eminescu,,44.306946,26.023688,,,,
8835,5684,Statia de Apa,,44.304748,26.019074,,,,
8836,5685,1 Decembrie 1918,,44.302848,26.012771,,,,
8837,5686,Arges,,44.305595,26.012849,,,,
8838,5687,Magazin,,44.307035,26.014488,,,,
8775,5688,Sonde,,44.316959,26.020937,,,,
8776,5689,Raurilor,,44.34065,26.040856,,,,
3308,569,Faur,,44.434349,26.183351,,,,
7775,5690,Straulesti,,44.503364,26.024194,,,,
7774,5691,Straulesti,,44.503825,26.024707,,,,
8865,5697,Drumul de Sonde,,44.367243,25.966714,,,,
8866,5698,Drumul de Sonde,,44.367117,25.966884,,,,
8500,5705,Scoala,,44.342458,25.942493,,,,
8498,5707,Clinceni,,44.376412,25.93836,,,,
3223,571,Bucur Obor,,44.448659,26.125441,,,,
8503,5710,Centru Social,,44.372662,25.926733,,,,
8504,5711,Biserica,,44.361042,25.896594,,,,
8505,5712,Tudor Vladimirescu,,44.364006,25.892467,,,,
8506,5714,Centru Social,,44.372937,25.927366,,,,
7771,5718,Gheorghieni,,44.420004,26.075736,,,,
3235,572,Lizeanu,,44.451848,26.12041,,,,
7770,5721,Gheorghieni,,44.419812,26.076793,,,,
11545,5722,Pompiliu Stefu,,44.481278,26.180777,,,,
11549,5725,Primaria Voluntari,,44.487842,26.184083,,,,
11554,5728,Craiovei,,44.493815,26.159688,,,,
11552,5729,Drumul Becheanului,,44.498749,26.169599,,,,
6014,573,Republica,,44.433371,26.185894,,,,
3233,575,Neatarnarii,,44.48538,26.043616,,,,
11580,5750,Drumul Becheanului,,44.498662,26.169792,,,,
11578,5751,Craiovei,,44.49423,26.159983,,,,
11589,5755,Pompiliu Stefu,,44.481198,26.181112,,,,
3239,576,Izbiceni,,44.487119,26.046422,,,,
9367,5761,Iancu de Hunedoara 2,,44.514039,26.129364,,,,
12049,5763,Jolie Ville Baneasa,,44.51502,26.11528,,,,
3240,577,Cartier Damaroaia,,44.488317,26.051163,,,,
7808,5772,Siretului,,44.493111,26.192721,,,,
3237,578,Cartier Damaroaia,,44.488346,26.050929,,,,
10815,5784,Cornisor,,44.474511,26.152096,,,,
10818,5785,Slovei,,44.477918,26.158174,,,,
10732,5786,Bariera CFR,,44.482541,26.163114,,,,
3238,579,Izbiceni,,44.487366,26.046768,,,,
10738,5790,Asociatia Don Orione,,44.495076,26.174608,,,,
10737,5792,Revolutiei,,44.49672,26.17615,,,,
10739,5794,ICAS,,44.502229,26.181268,,,,
10804,5797,ICAS,,44.500567,26.179626,,,,
10805,5799,Democratiei,,44.498514,26.177706,,,,
3248,580,Neatarnarii,,44.485879,26.04438,,,,
10807,5801,Asociatia Don Orione,,44.494669,26.174138,,,,
10810,5804,Popasului,,44.485396,26.165587,,,,
10811,5805,Bariera CFR,,44.482074,26.162573,,,,
10819,5806,Slovei,,44.47763,26.157632,,,,
10816,5807,Cornisor,,44.474335,26.151559,,,,
10817,5808,Oituz,,44.472505,26.147912,,,,
3254,581,Bd. Bucurestii Noi,,44.48393,26.04122,,,,
11445,5811,Bucur Obor,,44.451097,26.125628,,,,
11547,5812,Scoala Gimnaziala Nr. 2,,44.4843,26.184433,,,,
11548,5813,Strada Burghiului,,44.485695,26.185492,,,,
7787,5814,Gheata,,44.48811,26.183354,,,,
11572,5817,Toma Caragiu,,44.492765,26.134538,,,,
3251,582,Bucur Obor,,44.44829,26.125671,,,,
11560,5822,Toma Caragiu,,44.49265,26.133478,,,,
11581,5825,Aries,,44.495572,26.167667,,,,
7789,5826,Posta,,44.492157,26.191182,,,,
11768,5828,Pod CFR Afumati,,44.49849,26.203826,,,,
11769,5829,Strada Oltului,,44.497234,26.200674,,,,
3274,583,Bd. Ferdinand,,44.443305,26.129858,,,,
7809,5830,Posta,,44.491869,26.19036,,,,
11579,5831,Ansamblul Avangarde Forest Iii,,44.497154,26.161819,,,,
7811,5832,Gheata,,44.487669,26.18212,,,,
7815,5833,Autoutilaj,,44.48336,26.173681,,,,
11550,5834,Ardealului,,44.484558,26.168288,,,,
11367,5835,Popasului,,44.486097,26.16633,,,,
11368,5836,Avram Iancu,,44.490038,26.169951,,,,
11369,5837,Ecaterina Teodoroiu,,44.492715,26.172432,,,,
11551,5838,Aries,,44.496222,26.167772,,,,
11433,5839,Ecaterina Teodoroiu,,44.492973,26.172562,,,,
11553,5840,Ansamblul Avangarde Forest Iii,,44.49666,26.161465,,,,
11556,5841,Domus Stil,,44.493528,26.147217,,,,
9074,5842,Soseaua Bucuresti Nord,,44.48904,26.126332,,,,
9073,5843,Metrou Pipera,,44.480695,26.115293,,,,
9067,5844,Platforma Pipera,,44.479525,26.111651,,,,
10982,5845,Platforma Pipera,,44.479391,26.111393,,,,
9265,5846,Metrou Pipera,,44.48079,26.115795,,,,
10983,5847,Soseaua Petricani,,44.482276,26.124992,,,,
9354,5848,Soseaua Bucuresti Nord,,44.49314,26.127411,,,,
11576,5849,Domus Stil,,44.493213,26.147726,,,,
3278,585,Sibiu,,44.428374,26.048918,,,,
11577,5850,Citylights,,44.490074,26.155238,,,,
11434,5851,Avram Iancu,,44.488875,26.168768,,,,
11582,5852,Popasului,,44.485306,26.16662,,,,
11583,5853,Ardealului,,44.48407,26.169023,,,,
11584,5854,Sihlea,,44.481783,26.17135,,,,
7784,5855,Autoutilaj,,44.483559,26.174455,,,,
7785,5856,Vasile Vasilache,,44.484396,26.176144,,,,
9071,5857,Soseaua Petricani,,44.482336,26.124562,,,,
11555,5858,Citylights,,44.490363,26.154739,,,,
3759,586,Casa Studentilor,,44.437339,26.078523,,,,
7790,5861,Mures,,44.493582,26.193974,,,,
11586,5862,Buzias,,44.485816,26.186444,,,,
11587,5863,Scoala Gimnaziala Nr. 2,,44.483971,26.183939,,,,
10736,5864,Democratiei,,44.498805,26.178076,,,,
11753,5865,Pod CFR Stefanesti,,44.511753,26.187981,,,,
11726,5866,Pod CFR Stefanesti,,44.511845,26.18779,,,,
10806,5867,Revolutiei,,44.496136,26.175522,,,,
9348,5868,Biserica Adormirea Maicii Domnului,,44.503687,26.136037,,,,
11790,5869,Strada Erou Chivu Dumitru,,44.501423,26.13976,,,,
3760,587,Vasile Parvan,,44.436755,26.08271,,,,
11767,5873,Str. I.L. Caragiale,,44.489667,26.179803,,,,
11698,5874,Academia De Politie,,44.516962,26.084158,,,,
11585,5875,Primaria Voluntari,,44.48756,26.183637,,,,
11702,5877,Galeriile Comerciale (Jolie Ville),,44.514868,26.114774,,,,
9362,5878,Liceul Mark Twain,,44.514564,26.119312,,,,
9364,5879,Panselelor,,44.514318,26.123467,,,,
9366,5880,Iancu de Hunedoara 2,,44.51384,26.131266,,,,
9347,5881,Pasarela,,44.511644,26.139404,,,,
9349,5882,Drumul Bisericii,,44.499362,26.134157,,,,
7814,5883,Drumul Potcoavei,,44.495842,26.130722,,,,
9353,5888,Drumul Potcoavei,,44.495599,26.130577,,,,
9352,5889,Drumul Bisericii,,44.500205,26.134625,,,,
9355,5890,Biserica Adormirea Maicii Domnului,,44.503984,26.136298,,,,
9357,5891,Pasarela,,44.510734,26.139151,,,,
9365,5892,Panselelor,,44.514444,26.122769,,,,
9363,5893,Liceul Mark Twain,,44.514718,26.118533,,,,
11686,5894,Galeriile Comerciale (Jolie Ville),,44.514919,26.114931,,,,
11791,5896,Parcul Regina Ana,,44.500242,26.14359,,,,
11770,5897,Gheorghe Dinca,,44.486292,26.176279,,,,
11771,5898,Parc Tudor Vladimirescu,,44.488592,26.171314,,,,
11783,5899,Strada Craiovei Nr. 5,,44.489806,26.168849,,,,
11784,5900,Strada Cugetarii,,44.492356,26.165178,,,,
11785,5901,Rozelor,,44.494148,26.16629,,,,
11787,5902,Parcul Regina Ana,,44.500316,26.143006,,,,
11788,5903,Strada Erou Chivu Dumitru,,44.501613,26.13906,,,,
8487,5904,Antim Ivireanul,,44.73891,26.177667,,,,
8488,5905,Antim Ivireanul,,44.738806,26.177626,,,,
8636,5906,Liliacului,,44.326671,25.990975,,,,
8637,5907,Liliacului,,44.32626,25.991604,,,,
8777,5912,Intrare Gradistea,,44.660619,26.280477,,,,
8778,5913,Gradistea DJ 101 1,,44.662158,26.28622,,,,
8779,5914,Gradistea DJ 101 2,,44.661963,26.291566,,,,
8789,5915,Gradistea DJ 101 2,,44.661924,26.29066,,,,
8790,5916,Gradistea DJ 101 1,,44.661961,26.285423,,,,
8791,5917,Intrare Gradistea,,44.660614,26.279211,,,,
8806,5918,Unirii,,44.608591,26.072327,,,,
8615,5919,Mogosoaia,,44.54055,25.980059,,,,
8641,5920,Piatra Craiului,,44.686663,26.150032,,,,
8642,5921,Piatra Craiului,,44.686812,26.149927,,,,
8760,5922,Biserica Varteju,,44.355326,25.989832,,,,
8831,5923,Piata Victoriei,,44.451344,26.086636,,,,
8795,5929,Hanului,,44.7356,26.072933,,,,
8798,5930,Hanului,,44.735519,26.073313,,,,
8659,5933,Rezervelor,,44.448648,25.989659,,,,
8661,5935,Crinului,,44.447166,25.999961,,,,
8720,5939,Cozieni-DJ100,,44.478556,26.300125,,,,
8804,5940,Manastirii,,44.715651,26.098264,,,,
11883,5945,Tudor Arghezi,,44.532302,25.976869,,,,
8842,5946,Bd. Basarabia,,44.436132,26.16954,,,,
8856,5947,Gradistea DJ 101 5,,44.662503,26.308725,,,,
8857,5948,Gradistea DJ 101 5,,44.662558,26.308946,,,,
11840,5949,Dacia,,44.470426,25.959849,,,,
11841,5950,1 Decembrie,,44.471433,25.969748,,,,
11842,5951,Scoala Rudeni,,44.476192,25.970504,,,,
11843,5953,Panduri,,44.478201,25.97047,,,,
11844,5954,Spicul,,44.489108,25.972211,,,,
11845,5955,Itp Grivita,,44.49441,25.974284,,,,
11846,5956,Integra,,44.498318,25.977161,,,,
11847,5957,Eremia Grigorescu,,44.500753,25.978988,,,,
11848,5958,Nicolae Balcescu,,44.502668,25.981113,,,,
11849,5959,Biserica,,44.49949,25.980538,,,,
11850,5960,Ion Creanga,,44.496718,25.979826,,,,
11811,5961,Ion Creanga,,44.496914,25.979037,,,,
11812,5962,Biserica,,44.500053,25.981028,,,,
11813,5963,Nicolae Balcescu,,44.502589,25.981448,,,,
11814,5964,Eremia Grigorescu,,44.500164,25.97842,,,,
11815,5965,Integra,,44.497692,25.976555,,,,
11816,5966,ITP Grivita,,44.494045,25.973924,,,,
11817,5967,Spicul,,44.488778,25.972026,,,,
11823,5968,Dncb,,44.478231,25.969411,,,,
11861,5969,Biserica Chitila,,44.504621,25.989625,,,,
11862,5971,Parc Dendrologic,,44.507352,25.994937,,,,
11863,5972,Paltinului,,44.51048,25.99343,,,,
11865,5974,Lac De Nuferi,,44.51187,25.986983,,,,
11867,5975,Ronda,,44.515642,25.981242,,,,
11868,5976,Recoltei,,44.513552,25.977243,,,,
11871,5978,Libertatii,,44.518057,25.980365,,,,
11872,5979,Nichita Stanescu,,44.522478,25.986602,,,,
11873,5980,Vanatorilor,,44.519036,25.992055,,,,
11874,5981,Astronomului,,44.521708,25.996367,,,,
11875,5982,Martha Bibescu,,44.521233,26.002543,,,,
11876,5983,Parc Mogosoaia,,44.523724,26.006196,,,,
11877,5985,Islaz,,44.526503,26.004968,,,,
11879,5988,Primaria Mogosoaia,,44.530689,25.997669,,,,
11880,5989,1 Iunie,,44.533222,25.991196,,,,
11881,5990,Colentina,,44.532698,25.988479,,,,
11882,5991,Stupinei,,44.534163,25.982091,,,,
11884,5992,Stupinei,,44.534268,25.982944,,,,
11885,5993,Colentina,,44.533151,25.988873,,,,
11886,5994,1 Iunie,,44.532899,25.992021,,,,
11887,5995,Primaria Mogosoaia,,44.530617,25.997688,,,,
11889,5998,Islaz,,44.526967,26.004486,,,,
3136,6,Calea Dudesti,,44.419706,26.136476,,,,
11890,6000,Parc Mogosoaia,,44.524095,26.006138,,,,
11891,6001,Martha Bibescu,,44.521359,26.002104,,,,
11892,6002,Astronomului,,44.522301,25.997128,,,,
11893,6003,Eugen Barbu,,44.524878,25.988551,,,,
11894,6004,Nichita Stanescu,,44.522398,25.985992,,,,
11895,6005,Libertatii,,44.517742,25.979893,,,,
11897,6007,Recoltei,,44.514387,25.978452,,,,
11898,6008,Ronda,,44.51555,25.98075,,,,
11900,6009,Lac De Nuferi,,44.511895,25.987401,,,,
11902,6011,Paltinului,,44.51022,25.993469,,,,
11903,6012,Parc Dendrologic,,44.507207,25.99469,,,,
11904,6014,Biserica Chitila,,44.504308,25.98891,,,,
8841,6015,Calea Dudesti,,44.420529,26.134881,,,,
8851,6018,Asan,,44.310478,26.016538,,,,
8852,6019,Asan,,44.310702,26.016346,,,,
8853,6020,Micsunelelor,,44.468374,25.945671,,,,
8854,6021,Micsunelelor,,44.467934,25.945802,,,,
9075,6022,Tancabesti,,44.678564,26.074644,,,,
9076,6023,I.S.T.I.S. Tancabesti,,44.679649,26.066925,,,,
9077,6024,Prof. Popa Angela,,44.680852,26.058387,,,,
9078,6025,Prof. Popa Angela,,44.680818,26.058154,,,,
9079,6026,I.S.T.I.S. Tancabesti,,44.679635,26.066673,,,,
8859,6027,Canal Arges,,44.446256,26.016772,,,,
8869,6029,Biserica Varteju,,44.356054,25.990397,,,,
8870,6030,Bulgarului,,44.358247,25.989052,,,,
8871,6032,Doamna Ghica,,44.46152,26.133709,,,,
8874,6033,Mierlari,,44.33423,26.064597,,,,
8872,6034,Gradinita cu program prelungit,,44.337724,26.069393,,,,
8873,6035,C.F.R. Centura,,44.342617,26.080623,,,,
8876,6036,Policlinica,,44.331945,26.07598,,,,
8885,6037,Remat,,44.521857,25.960913,,,,
8886,6038,Cartier Sabareni,,44.526535,25.953875,,,,
8889,6040,Biserica Sabareni,,44.533059,25.936038,,,,
8890,6041,Putul Oii,,44.540171,25.946183,,,,
8891,6042,Mesteacanului,,44.549076,25.939515,,,,
8892,6043,Manesti,,44.552447,25.936961,,,,
8893,6044,Monumentul Eroilor,,44.558754,25.931911,,,,
8894,6045,Independentei,,44.561598,25.929478,,,,
8895,6046,Ciresului,,44.565539,25.926447,,,,
8896,6047,Aleea cu Brazi,,44.563018,25.933111,,,,
8897,6048,Tribunalul Buftea,,44.560994,25.942401,,,,
8907,6049,Stirbei Voda,,44.557973,25.950662,,,,
7251,605,Piata Presei,,44.475439,26.071998,,,,
8908,6050,Tribunal Buftea,,44.561044,25.942433,,,,
8909,6051,Aleea cu Brazi,,44.563038,25.932852,,,,
8906,6052,Ciresului,,44.565225,25.926575,,,,
8905,6053,Independentei,,44.561327,25.929628,,,,
8904,6054,Monumentul Eroilor,,44.557877,25.932511,,,,
8903,6055,Manesti,,44.55195,25.937213,,,,
8902,6056,Mesteacanului,,44.548705,25.939665,,,,
8901,6057,Putul Oii,,44.539988,25.946177,,,,
8900,6058,Biserica Sabareni,,44.533141,25.936036,,,,
8898,6060,Cartier Sabareni,,44.525533,25.955329,,,,
8887,6061,Remat,,44.521678,25.960908,,,,
8911,6063,Statia de Ambulanta,,44.616805,26.069633,,,,
8912,6064,Statia de Ambulanta,,44.615591,26.069489,,,,
8941,6065,Sticlariei,,44.540457,25.951325,,,,
8942,6066,Scoala Generala Nr. 4,,44.542538,25.9587,,,,
8943,6067,Agricultori,,44.547151,25.957179,,,,
8944,6068,Razboieni,,44.549867,25.955637,,,,
8946,6069,Garoafei,,44.552658,25.952157,,,,
8914,6072,Sat Tamasi,,44.584686,26.011547,,,,
8915,6073,Teren Sport,,44.585925,26.016253,,,,
8978,6074,Teren Sport,,44.58583,26.015956,,,,
8979,6075,Sat Tamasi,,44.584562,26.011035,,,,
8985,6079,Garoafei,,44.552558,25.952227,,,,
8986,6080,Razboieni,,44.54956,25.955754,,,,
8987,6081,Agricultori,,44.546478,25.957453,,,,
8988,6082,Scoala Generala Nr. 4,,44.542508,25.958623,,,,
8989,6083,Sticlariei,,44.540547,25.951541,,,,
8990,6084,Virtutii,,44.62783,26.159334,,,,
8991,6085,Palatul Ghica,,44.627029,26.170607,,,,
8992,6086,Academiei,,44.63203,26.178801,,,,
8993,6087,Agromec,,44.635744,26.19163,,,,
8994,6088,Pascani,,44.640743,26.20109,,,,
8995,6089,Scoala I,,44.640536,26.210677,,,,
8996,6090,Garii,,44.640513,26.214629,,,,
8997,6091,Regele Ferdinand I,,44.642468,26.2227,,,,
8998,6092,Regele Ferdinand I,,44.642273,26.221752,,,,
8999,6093,Garii,,44.640582,26.213952,,,,
9000,6094,Scoala I,,44.640599,26.210607,,,,
9001,6095,Pascani,,44.640571,26.200409,,,,
9002,6096,Agromec,,44.635819,26.191687,,,,
9003,6097,Academiei,,44.631997,26.178512,,,,
9004,6098,Palatul Ghica,,44.6272,26.169521,,,,
9005,6099,Virtutii,,44.62781,26.158669,,,,
3519,61,Cismigiu,,44.437664,26.086795,,,,
8455,6100,Viilor,,44.56264,25.956708,,,,
8916,6101,Mihai Eminescu,,44.565206,25.953028,,,,
8917,6102,Mihai Eminescu,,44.565344,25.953349,,,,
8918,6103,Viilor,,44.562672,25.956598,,,,
9006,6104,Vlasiei,,44.555123,25.949066,,,,
9007,6105,I.C. Bratianu,,44.555863,25.94523,,,,
9008,6106,Iuliu Maniu,,44.558043,25.944501,,,,
9011,6109,Gradinita Caciulati,,44.628222,26.17689,,,,
9012,6110,Scoala II,,44.643512,26.226642,,,,
9013,6111,Ion Creanga,,44.648739,26.238712,,,,
9014,6112,Ion Creanga,,44.64838,26.238163,,,,
9015,6113,Scoala II,,44.643559,26.226549,,,,
9016,6114,Gradinita Caciulati,,44.628208,26.176799,,,,
9018,6117,Iuliu Maniu,,44.557199,25.944721,,,,
9019,6118,I.C. Bratianu,,44.555926,25.945158,,,,
9020,6119,Vlasiei,,44.555054,25.949031,,,,
9023,6120,Complex Comercial,,44.376068,26.118506,,,,
9024,6122,Liceul Teoretic Marin Preda,,44.459301,26.040275,,,,
9025,6123,Liceul Teoretic Marin Preda,,44.459535,26.040437,,,,
11597,6156,Str. Moara Domneasca,,44.50511,26.217327,,,,
11598,6157,Moara Domneasca-Centru,,44.493249,26.255981,,,,
11599,6158,Ganeasa DJ 300,,44.495549,26.272724,,,,
11600,6159,Pescariei,,44.493892,26.276354,,,,
11218,6160,Ganeasa,,44.491763,26.282135,,,,
11249,6163,Ganeasa,,44.491883,26.281719,,,,
11594,6164,Pescariei,,44.494241,26.275681,,,,
11595,6165,Ganeasa DJ 300,,44.495752,26.272445,,,,
11596,6166,Moara Domneasca-Centru,,44.493176,26.255604,,,,
9340,6169,Scoala Americana,,44.529125,26.142952,,,,
9341,6170,Liziera Residences,,44.52175,26.143175,,,,
9344,6172,Vasile Alecsandri,,44.516434,26.141474,,,,
9345,6173,Erou Iancu Nicolae,,44.513722,26.14031,,,,
9351,6174,Erou Iancu Nicolae,,44.513649,26.140401,,,,
9350,6175,Vasile Alecsandri,,44.516872,26.141839,,,,
9359,6177,Liziera Residences,,44.521727,26.143346,,,,
9360,6178,Scoala Americana,,44.529441,26.143081,,,,
9034,6184,Bd. Garii Obor,,44.446457,26.143534,,,,
9035,6185,Bd. Garii Obor,,44.44653,26.14377,,,,
9068,6186,Bd. Lacul Tei,,44.467063,26.127546,,,,
9069,6187,Fabrica de Glucoza,,44.479199,26.125613,,,,
9070,6188,Fabrica de Glucoza,,44.478383,26.125427,,,,
9235,6193,Fabrica de Medicamente,,44.378348,25.984934,,,,
9236,6194,Fabrica de Medicamente,,44.378863,25.985698,,,,
9240,6195,Feroviarilor,,44.464595,26.055284,,,,
9239,6196,Feroviarilor,,44.46363,26.055727,,,,
9237,6197,Cartier Panduri,,44.425509,26.065842,,,,
9238,6198,Cartier Panduri,,44.425316,26.066166,,,,
9234,6199,Soseaua Fundeni,,44.464355,26.148241,,,,
3173,620,Barajul Dunarii,,44.424935,26.170399,,,,
9247,6200,Tudor Vladimirescu,,44.418591,26.080784,,,,
9248,6203,La Batozaru,,44.685577,26.079294,,,,
9249,6204,La Batozaru,,44.685277,26.078981,,,,
3170,622,Bd. Nicolae Grigorescu,,44.424801,26.162104,,,,
9374,6221,Bd. 1 Decembrie 1918,,44.434805,26.172214,,,,
9376,6223,Barajul Rovinari,,44.430478,26.173269,,,,
9379,6226,Prevederii,,44.410214,26.163739,,,,
9339,6228,Pasaj CFR Tunari,,44.534745,26.142708,,,,
7260,623,Piata Unirii,,44.42661,26.100434,,,,
9342,6230,Soseaua Bucuresti Nord,,44.493558,26.127792,,,,
9384,6231,Ferma,,44.619472,26.092497,,,,
9385,6232,Filatura,,44.620949,26.099756,,,,
9386,6233,Lunii,,44.622325,26.114374,,,,
9388,6234,Unitatii,,44.620607,26.123834,,,,
9392,6236,Ansamblul Rezidential Vilaggio S,,44.624014,26.140736,,,,
9393,6237,Ansamblul Rezidential Vilaggio S,,44.624092,26.140475,,,,
9389,6239,Unitatii,,44.620665,26.123531,,,,
3177,624,Soseaua Campia Libertatii,,44.423356,26.151228,,,,
9387,6240,Lunii,,44.622327,26.115012,,,,
9394,6241,Filatura,,44.620867,26.098854,,,,
9395,6242,Ferma,,44.619563,26.092696,,,,
9396,6243,Petresti (Mega Image),,44.601243,26.070361,,,,
9403,6249,Pasaj CFR Constanta,,44.489503,26.119242,,,,
9405,6250,Ferma Rosia,,44.491152,26.123112,,,,
9404,6251,Ferma Rosia,,44.49092,26.122455,,,,
9402,6252,Pasaj CFR Constanta,,44.48938,26.118795,,,,
10682,6254,Piata Dorobanti,,44.461783,26.094912,,,,
9407,6256,Piata Dorobanti,,44.461031,26.09386,,,,
9888,6257,Piata Dorobanti,,44.459751,26.094479,,,,
9408,6258,Gruiu,,44.718874,26.24052,,,,
9442,6259,Petre Marinescu,,44.418495,26.080207,,,,
7261,626,11 Iunie,,44.424507,26.09613,,,,
9882,6260,Calea Grivitei,,44.44401,26.09225,,,,
9884,6262,Cuza Voda,,44.72503,26.23494,,,,
9886,6263,Cotinii,,44.723594,26.241019,,,,
9887,6264,Cotinii,,44.723779,26.241138,,,,
9885,6265,Cuza Voda,,44.725119,26.235625,,,,
10683,6266,Soseaua Colentina,,44.462915,26.13332,,,,
9889,6267,Erou Iancu Nicolae,,44.513481,26.137531,,,,
9890,6268,Complex Comercial Fizicienilor,,44.407947,26.148563,,,,
10121,6269,Ghencea,,44.414946,26.046655,,,,
3176,627,Soseaua Campia Libertatii,,44.423083,26.150502,,,,
10122,6270,Ghencea,,44.414857,26.046826,,,,
10123,6271,Ghencea,,44.414953,26.046474,,,,
10124,6272,Ghencea,,44.414847,26.046674,,,,
10092,6278,Veronica Micle,,44.429355,26.274069,,,,
10107,6279,Veronica Micle,,44.429545,26.273991,,,,
3183,628,Pod Lacuri,,44.424202,26.157747,,,,
3180,629,Bd. Nicolae Grigorescu,,44.424881,26.162827,,,,
3516,63,Gara de Nord,,44.446219,26.073369,,,,
10168,6306,Ghidigeni,,44.410961,26.021089,,,,
7364,631,Piata Regina Maria,,44.421936,26.091207,,,,
10173,6316,Catiche,,44.411641,25.881077,,,,
10174,6317,Catiche,,44.411145,25.881453,,,,
10175,6318,Tudor Gociu,,44.378413,26.09533,,,,
10416,6319,Dimitrie Cantemir,,44.515321,26.108471,,,,
7366,632,Sebastian,,44.412361,26.073942,,,,
10415,6320,Dimitrie Cantemir,,44.515129,26.110033,,,,
10417,6321,Proda,,44.340258,26.073024,,,,
10418,6322,Proda,,44.340444,26.073437,,,,
10450,6323,Piata Delfinului,,44.445106,26.15692,,,,
10685,6324,Garii 96,,44.339512,26.10064,,,,
10686,6325,Garii 96,,44.339423,26.100426,,,,
10687,6328,Soseaua Salaj 363,,44.387371,26.060757,,,,
10688,6329,Soseaua Salaj 363,,44.387318,26.060584,,,,
3380,633,Pod Lacuri,,44.424271,26.157984,,,,
12053,6332,Scoala Gimnaziala nr. 81,,44.420036,26.112724,,,,
12054,6333,Panait Cerna,,44.422374,26.1118,,,,
12055,6334,Mircea Voda,,44.425854,26.111854,,,,
12056,6335,Panait Cerna,,44.421808,26.111885,,,,
12057,6336,Scoala Gimnziala nr. 81,,44.419459,26.112796,,,,
10690,6337,Stirbei Voda,,44.558258,25.951709,,,,
10741,6338,Sinaia,,44.525653,26.197699,,,,
10742,6339,Busteni,,44.529589,26.200405,,,,
10743,6340,Targu Jiu,,44.531449,26.201733,,,,
10744,6341,Primaria Stefanestii de Jos,,44.535177,26.201511,,,,
10740,6342,Baza de Aprovizionare,,44.519323,26.193252,,,,
10746,6343,Stadion,,44.53854,26.204616,,,,
10749,6344,Biserica Boltas,,44.542834,26.2117,,,,
10763,6345,Ion Creanga,,44.64879,26.238777,,,,
10772,6346,Merii Petchii,,44.742637,26.312374,,,,
10782,6347,Ion Creanga,,44.648315,26.238077,,,,
10801,6348,Primaria Stefanestii de Jos,,44.534562,26.201827,,,,
10802,6349,Targu Jiu,,44.531138,26.201395,,,,
10812,6350,Busteni,,44.529308,26.20014,,,,
10813,6351,Sinaia,,44.524399,26.196696,,,,
10814,6352,Baza de Aprovizionare,,44.519316,26.193152,,,,
10831,6353,Dealul Morii,,44.716367,26.250508,,,,
10822,6354,Trandafirilor,,44.714635,26.253941,,,,
10823,6355,Lipia - Centru,,44.713827,26.261667,,,,
10824,6356,Centru Medical,,44.711422,26.317938,,,,
10825,6357,Moara,,44.702799,26.326588,,,,
10826,6358,La Troita,,44.699809,26.33063,,,,
10827,6359,Orhideelor,,44.691489,26.345968,,,,
7360,636,Clabucet,,44.471258,26.051434,,,,
10828,6360,Scoala Micsunestii Mari,,44.691722,26.354405,,,,
10829,6361,Micsunestii Mari,,44.693466,26.359528,,,,
10830,6362,Magazin,,44.692694,26.357236,,,,
10821,6363,Scoala Micsunestii Mari,,44.691361,26.353108,,,,
10832,6364,Orhideelor,,44.692128,26.345276,,,,
10833,6365,La Troita,,44.700061,26.330108,,,,
10834,6366,Moara,,44.703254,26.326344,,,,
11090,6367,Prevederii,,44.409652,26.163707,,,,
10836,6368,Lipia - centru,,44.714219,26.260999,,,,
10837,6369,Trandafirilor,,44.71467,26.253428,,,,
7354,637,Brasov,,44.414099,26.034301,,,,
10838,6370,Dealul Morii,,44.716866,26.249687,,,,
10839,6371,Lavei,,44.405236,26.015275,,,,
10842,6372,Republica,,44.434067,26.186739,,,,
10841,6373,Republica,,44.433257,26.187214,,,,
10843,6374,Remat,,44.521769,25.96109,,,,
10840,6376,Carrefour Militari,,44.438137,25.959993,,,,
10846,6378,Piata Iancului,,44.441056,26.132556,,,,
10921,6380,Greenfield,,44.538298,26.092166,,,,
10984,6381,Fabrica de Glucoza,,44.478681,26.124602,,,,
10985,6382,Fabrica de Glucoza 15,,44.478423,26.121613,,,,
10986,6383,George Constantinescu,,44.477845,26.116384,,,,
10987,6384,Chefalului,,44.476203,26.110138,,,,
10988,6385,Barbu Vacarescu,,44.475661,26.106237,,,,
10989,6387,Barbu Vacarescu,,44.475608,26.108089,,,,
10990,6388,Chefalului,,44.476655,26.111498,,,,
10991,6389,George Constantinescu,,44.477923,26.117768,,,,
3879,639,Piata Leul,,44.434467,26.058093,,,,
10992,6390,Fabrica de Glucoza 8,,44.478416,26.122812,,,,
10993,6391,Petricani,,44.478587,26.124679,,,,
10852,6392,Universitatea Adventus,,44.423403,26.275826,,,,
10851,6393,Universitatea Adventus,,44.424486,26.276035,,,,
11089,6396,Piata Titan,,44.412455,26.163366,,,,
11091,6398,Malva,,44.405107,26.162802,,,,
11092,6399,Pasajul Nicolae Grigorescu,,44.400273,26.160525,,,,
3509,64,Gara Basarab,,44.449532,26.067908,,,,
11087,6400,Pasajul Nicolae Grigorescu,,44.40036,26.161132,,,,
11088,6401,Malva,,44.405919,26.163365,,,,
10866,6402,Tunari-Sens Giratoriu,,44.539851,26.142538,,,,
10861,6404,Tunari,,44.550094,26.141967,,,,
10857,6405,Tunari-Sens Giratoriu,,44.539753,26.142286,,,,
10899,6406,Biserica Sfintii Brancoveni,,44.36349,26.113027,,,,
10900,6407,Drumul Binelui,,44.36418,26.117173,,,,
10901,6408,Aurel Persu,,44.367244,26.120027,,,,
10902,6409,Drumul Jilavei,,44.368203,26.126695,,,,
7346,641,Pod Baneasa,,44.489974,26.080523,,,,
10903,6410,Drumul Jilavei 99,,44.371399,26.128651,,,,
10904,6411,Maria Lazarescu,,44.376047,26.132288,,,,
10905,6412,Macesului,,44.372041,26.140599,,,,
10906,6413,Drumul Cretestilor,,44.367706,26.134055,,,,
10907,6414,Metalurgiei,,44.370186,26.12271,,,,
10908,6415,Aurel Persu,,44.367338,26.119388,,,,
10909,6416,Drumul Postalionului,,44.371059,26.115089,,,,
10910,6417,Drumul Dealul Cucului,,44.368086,26.114336,,,,
10914,6419,Halelor,,44.465555,26.352848,,,,
7342,642,Piata Chirigiu,,44.417933,26.082946,,,,
10912,6420,Weber,,44.465871,26.366565,,,,
10913,6421,Weber,,44.465943,26.366431,,,,
10915,6422,Halelor,,44.465524,26.352162,,,,
10917,6424,Andronache,,44.698001,26.335336,,,,
10918,6425,Andronache,,44.698067,26.335267,,,,
7085,6426,Piata Sudului,,44.391711,26.123552,,,,
10922,6429,Greenfield,,44.538289,26.092417,,,,
10954,6430,Petrus,,44.309586,26.113272,,,,
10955,6431,La Ceausu,,44.297156,26.122068,,,,
10957,6432,Petrus,,44.309811,26.113023,,,,
10956,6433,La Ceausu,,44.297663,26.121761,,,,
10981,6434,Biharia,,44.496903,26.098811,,,,
10979,6435,Stefan Mihailescu Braila,,44.496708,26.107597,,,,
10978,6436,Stefan Mihailescu Braila,,44.496946,26.108057,,,,
10980,6437,Drumul Nisipoasa,,44.496723,26.102303,,,,
10996,6439,Slt. Stanciu Gheorghita,,44.335306,25.943901,,,,
7343,644,Pod Baneasa,,44.490663,26.078947,,,,
10998,6440,Barajului,,44.333674,25.947192,,,,
11000,6441,Zavoiului,,44.332457,25.951916,,,,
11001,6442,Zavoiului,,44.332365,25.952522,,,,
10999,6443,Barajului,,44.33375,25.946536,,,,
10997,6444,Slt. Stanciu Gheorghita,,44.335758,25.943517,,,,
11002,6445,Cornetu,,44.330055,25.95259,,,,
11003,6446,Cornetu,,44.330296,25.95293,,,,
11007,6447,Semanatoarea,,44.445492,26.046352,,,,
11008,6448,Poet George Tarnea,,44.454127,26.26803,,,,
11009,6449,Poet George Tarnea,,44.454027,26.266129,,,,
7345,645,Gara Baneasa,,44.484006,26.075753,,,,
11093,6457,Splaiul Unirii,,44.398112,26.159027,,,,
11094,6458,Intrarea Serelor,,44.392825,26.155583,,,,
11076,6463,Splaiul Unirii,,44.398293,26.159843,,,,
11023,6464,Arcadiei,,44.373643,26.130485,,,,
11024,6465,Glina,,44.384575,26.2562,,,,
11025,6466,Manolache,,44.403189,26.24786,,,,
11028,6467,Biserica Sfintii Brancoveni,,44.364,26.113175,,,,
11027,6468,Darvari,,44.414105,25.87759,,,,
11026,6469,Darvari,,44.414155,25.877396,,,,
12009,6472,Soseaua Colentina,,44.469466,26.142401,,,,
12011,6473,Nicolae Zamfir,,44.473028,26.141398,,,,
12012,6474,Agregatelor,,44.476874,26.139316,,,,
12013,6475,Agregatelor,,44.476071,26.139872,,,,
12014,6476,Soseaua Colentina,,44.469604,26.142147,,,,
11107,6477,Cartier Panduri,,44.425564,26.065708,,,,
11108,6478,Piata Danny Huwe,,44.42855,26.062044,,,,
7340,648,Arcul de Triumf,,44.46695,26.07948,,,,
11072,6481,Piata Sfanta Vineri,,44.42985,26.107347,,,,
11071,6482,Piata Victoriei,,44.452117,26.0865,,,,
11070,6483,Piata Victoriei,,44.452056,26.087047,,,,
11077,6484,Fundeni,,44.470472,26.176218,,,,
11079,6485,Piersicului,,44.471225,26.17461,,,,
11082,6486,Parului,,44.470718,26.170879,,,,
11083,6487,Ciresului,,44.467865,26.16753,,,,
11086,6488,Livada,,44.465633,26.164973,,,,
11085,6489,Livada,,44.465186,26.164572,,,,
7341,649,Piata Regina Maria,,44.421119,26.090223,,,,
11084,6490,Ciresului,,44.468184,26.168015,,,,
11081,6491,Parului,,44.471148,26.171483,,,,
11080,6492,Piersicului,,44.471349,26.174309,,,,
11078,6493,Fundeni,,44.470267,26.176199,,,,
10835,6494,Primaria Nuci,,44.711974,26.317577,,,,
12071,6495,Pantelimon,,44.440188,26.183511,,,,
12073,6496,Pantelimon,,44.440257,26.183521,,,,
12069,6497,Pantelimon,,44.440058,26.183602,,,,
12068,6498,Pantelimon,,44.440142,26.183226,,,,
12067,6499,Pantelimon,,44.44054,26.183365,,,,
3511,65,Calea Giulesti,,44.447973,26.064422,,,,
7392,650,Bd. Petrila,,44.512286,26.018959,,,,
12070,6502,Pantelimon,,44.440265,26.18306,,,,
12072,6503,Pantelimon,,44.440333,26.183076,,,,
11101,6507,Complex Comercial Outlet,,44.406939,26.277292,,,,
11102,6508,Dr. Constantin Istrati,,44.411133,26.088362,,,,
11103,6509,Spatarul Preda,,44.411704,26.083163,,,,
7390,651,Buzias,,44.509631,26.02205,,,,
11104,6510,Calea Rahovei,,44.415226,26.078984,,,,
11105,6511,INOX,,44.418967,26.074373,,,,
11110,6512,Calea 13 Septembrie,,44.42187,26.070261,,,,
11111,6513,Calea Rahovei,,44.415276,26.078679,,,,
11112,6514,Spatarul Preda,,44.411115,26.083667,,,,
11120,6515,Therme Bucuresti,,44.606485,26.087066,,,,
11121,6516,Therme Bucuresti,,44.606233,26.087103,,,,
11119,6517,Petresti,,44.600167,26.072237,,,,
11122,6518,Complex Comercial,,44.60337,26.0707,,,,
7391,652,Doi Cocosi,,44.506873,26.025126,,,,
11129,6520,Dedeman Ghencea,,44.410363,26.034827,,,,
11132,6521,Dedeman Ghencea,,44.410158,26.034808,,,,
11134,6523,Romancierilor,,44.423915,26.025091,,,,
11133,6524,Romancierilor,,44.426134,26.024653,,,,
11135,6526,Prelungirea Ghencea 350,,44.407512,25.982933,,,,
11136,6527,Prelungirea Ghencea 81,,44.407454,25.983126,,,,
11128,6528,Drumul Gilaului,,44.370124,26.117316,,,,
11940,6529,Gruiu-Lipia,,44.71218,26.272738,,,,
11941,6530,Gruiu-Lipia,,44.712152,26.273097,,,,
11942,6531,Gruiu,,44.718875,26.24052,,,,
12010,6532,Litoralului,,44.470751,26.141785,,,,
12008,6535,Dumitru Brumarescu 14,,44.361339,26.137185,,,,
12007,6536,Dumitru Brumarescu 14,,44.360993,26.13751,,,,
12015,6537,Complex Comercial,,44.500223,26.064302,,,,
12016,6538,Complex Comercial,,44.500743,26.063458,,,,
12023,6539,Soseaua Mihai Bravu,,44.409654,26.122211,,,,
3928,654,Casa Studentilor,,44.437263,26.079213,,,,
12022,6540,Scorteni,,44.412085,26.119343,,,,
12024,6541,Univ. Crestina Dimitrie Cantemir,,44.416111,26.113759,,,,
12020,6542,V. V. Stanciu,,44.413356,26.11712,,,,
12021,6543,Bd. Abatorului,,44.410696,26.120038,,,,
6411,6544,Drumul Binelui,,44.371415,26.122985,,,,
7142,6545,Bd. Metalurgiei 29,,44.372951,26.122255,,,,
7145,6546,Bd. Metalurgiei 29,,44.373011,26.122073,,,,
6437,6547,Drumul Binelui,,44.36994,26.123562,,,,
12048,6548,Dumitru Brumarescu,,44.36735,26.133289,,,,
7393,655,11 Iunie,,44.423503,26.094433,,,,
12059,6550,Pasaj Mihai Bravu,,44.40701,26.121717,,,,
12060,6551,Pod Timpuri Noi,,44.416338,26.114686,,,,
12061,6552,Splaiul Unirii 45,,44.419008,26.11183,,,,
12063,6553,Panait Cerna,,44.422218,26.110378,,,,
12062,6554,Pasaj Mihai Bravu,,44.408069,26.121196,,,,
7365,6557,Stefan Burileanu,,44.484572,26.092222,,,,
7337,6558,Stefan Burileanu,,44.483397,26.092136,,,,
12066,6559,Mantuleasa,,44.432983,26.11205,,,,
6737,6560,Liceul Lucian Blaga,,44.440858,26.180476,,,,
6726,6561,Liceul Lucian Blaga,,44.440973,26.181183,,,,
12099,6562,Pantelimon,,44.43946,26.181563,,,,
12098,6563,Pantelimon,,44.439563,26.181613,,,,
7708,6564,Ferma Pantelimon,,44.464728,26.212153,,,,
7709,6565,Ferma Pantelimon,,44.464975,26.21214,,,,
12097,6566,Barbu Vacarescu,,44.45349,26.104957,,,,
7387,657,Cimitirul Eroilor Revolutiei,,44.406091,26.096048,,,,
7060,6575,Ion Cornea,,44.400253,26.087781,,,,
7071,6576,Ion Cornea,,44.399826,26.08731,,,,
6439,6577,Voila,,44.389187,26.125875,,,,
6460,6578,Voila,,44.388675,26.126139,,,,
6450,6579,Bd. G-ral Paul Teodorescu,,44.428636,26.055557,,,,
7388,658,Cutitul de Argint,,44.409226,26.097652,,,,
6446,6580,Bd. G-ral Paul Teodorescu,,44.428746,26.053793,,,,
3683,6581,Bd. G-ral Paul Teodorescu,,44.434583,26.052951,,,,
3471,6582,Bd. G-ral Paul Teodorescu,,44.428591,26.05397,,,,
12122,6583,Bd. G-ral Paul Teodorescu,,44.4287,26.055161,,,,
11109,6584,Bd. G-ral Paul Teodorescu,,44.429172,26.054575,,,,
12171,6586,Complex Comercial Baneasa,,44.507725,26.084373,,,,
12172,6587,Complex Comercial Baneasa,,44.507674,26.084326,,,,
12129,6588,Bragadiru Diamantului (Sosiri),,44.388563,26.000697,,,,
12130,6589,Bragadiru Diamantului,,44.388512,26.000421,,,,
7385,659,Adesgo,,44.411494,26.100741,,,,
12131,6590,Margelelor 38,,44.395658,26.00576,,,,
12132,6591,Cristalului,,44.392097,26.007395,,,,
12133,6592,Cristalului,,44.3911,26.008255,,,,
12134,6593,Rubinului,,44.396491,26.005132,,,,
12135,6594,Lavei,,44.405936,26.016053,,,,
12136,6595,Ghidigeni,,44.410959,26.021187,,,,
12137,6596,Piscu - Olarilor,,44.741789,26.064357,,,,
12138,6597,Piscu - Olarilor,,44.741736,26.064322,,,,
12140,6598,Metrou Nicolae Teclu,,44.407293,26.194017,,,,
12139,6599,Metrou Nicolae Teclu,,44.407073,26.195338,,,,
3477,66,Spitalul Panait Sarbu,,44.449784,26.061536,,,,
12145,6600,Cimitirul Ghencea 2,,44.407265,25.979764,,,,
12146,6601,Pasaj Domnesti,,44.406779,25.978782,,,,
12141,6602,Balta Neagra,,44.69804,26.30695,,,,
12142,6603,Balta Neagra,,44.69803,26.30651,,,,
12147,6604,La Bacanie,,44.679966,26.11558,,,,
12148,6605,Centrul Comercial,,44.681986,26.161503,,,,
12149,6606,Centrul Comercial,,44.683152,26.162649,,,,
12156,6607,Pasarela,,44.395906,26.218552,,,,
12158,6608,Centura Domnesti,,44.404794,25.969105,,,,
12157,6609,Centura Domnesti,,44.404824,25.968928,,,,
12159,6610,Statia Electrica,,44.404335,25.966543,,,,
12168,6614,Piata Francofoniei,,44.425017,26.090835,,,,
12169,6615,Piata Constitutiei,,44.428685,26.091167,,,,
12176,6616,Institutul Meteorologic,,44.512741,26.081284,,,,
12177,6617,Institutul Meteorologic,,44.513094,26.081229,,,,
12178,6618,Cartier Greenfield,,44.538193,26.094845,,,,
12179,6619,Cartier Greenfield,,44.538069,26.094857,,,,
7127,6622,Maguricea,,44.483284,26.098291,,,,
12182,6623,Piata Drumul Taberei,,44.422144,26.03578,,,,
12183,6624,Piata Drumul Taberei,,44.42164,26.034358,,,,
12184,6625,Parc Drumul Taberei,,44.422312,26.033666,,,,
12255,6629,Ferma,,44.712111,26.281579,,,,
12256,6630,Ferma,,44.711673,26.282266,,,,
12190,6631,Tamasi,,44.577384,25.998781,,,,
12193,6632,DNCB,,44.33935,26.155886,,,,
12194,6633,DNCB,,44.339509,26.156764,,,,
12195,6634,Peco Silflor Move,,44.337146,26.146035,,,,
12197,6635,Colegiul National Gheorghe Lazar,,44.434983,26.089546,,,,
12198,6636,Cismigiu,,44.438334,26.087626,,,,
12199,6637,Stirbei Voda,,44.440271,26.086483,,,,
12200,6638,Popa Tatu,,44.443567,26.083739,,,,
12201,6639,Berzei,,44.444755,26.082104,,,,
12202,6640,Piata Victoriei,,44.451383,26.084554,,,,
12204,6641,Piata Floreasca,,44.460361,26.101032,,,,
12203,6642,George Calinescu,,44.461763,26.101247,,,,
12205,6643,Piata Dorobanti,,44.461125,26.094584,,,,
12206,6644,Aleea Lacului,,44.45393,26.163568,,,,
12207,6645,Aleea Lacului,,44.454819,26.163872,,,,
12208,6646,Fundeni,,44.457728,26.162757,,,,
12209,6647,Fundeni,,44.457431,26.162722,,,,
12218,6648,Parc Teilor,,44.423167,26.193956,,,,
12219,6649,Gura Siriului,,44.420273,26.191279,,,,
12220,6650,Varasti,,44.42145,26.18719,,,,
12221,6651,Fruntas Stan Constantin,,44.422168,26.18399,,,,
12222,6652,Bd. 1 Decembrie 1918,,44.423198,26.178432,,,,
12223,6653,Fruntas Stan Constantin,,44.422498,26.18242,,,,
12224,6654,Varasti,,44.421035,26.188409,,,,
12225,6655,Gura Siriului,,44.420543,26.192647,,,,
12226,6656,Parc Teilor,,44.422961,26.193854,,,,
12236,6657,Splaiul Unirii 550,,44.400991,26.151337,,,,
12243,6658,Piata Victoriei,,44.453861,26.086181,,,,
12244,6659,Arcul de Triumf,,44.466205,26.07856,,,,
12245,6660,Arhitect Ion Mincu,,44.458466,26.082429,,,,
12246,6661,Piata Victoriei,,44.45483,26.084366,,,,
12247,6662,Arhitect Ion Mincu,,44.460412,26.08623,,,,
12249,6663,Bd. Poligrafiei,,44.483556,26.059126,,,,
12252,6664,Gradinita Domnesti,,44.400343,25.91085,,,,
12250,6665,Muzeul Satului,,44.471769,26.075811,,,,
12251,6666,Piata Charles de Gaulle,,44.465217,26.086552,,,,
12253,6667,Cartierul Tineretului,,44.632773,26.181164,,,,
12254,6668,Cartierul Tineretului,,44.632918,26.181855,,,,
12257,6669,Bd. Eroilor,,44.434236,26.073441,,,,
7377,667,Gladiolelor,,44.392226,26.025064,,,,
12258,6670,Pasaj Otopeni,,44.533941,26.06956,,,,
12259,6671,Valea Ialomitei,,44.421227,26.015718,,,,
12260,6672,Drumul Padurea Pustnicu,,44.536813,26.083772,,,,
12261,6673,Drumul Padurea Pustnicu,,44.536695,26.083478,,,,
12264,6674,Scoala Gimnaziala Petru Rares,,44.449552,25.984526,,,,
12265,6675,Apeductului 64,,44.450528,25.979286,,,,
12266,6676,Veseliei,,44.451673,25.972135,,,,
12267,6677,Stelelor 10,,44.45056,25.970753,,,,
12268,6678,Stelelor 64,,44.444067,25.971492,,,,
12269,6679,Drumul Ciorogarla,,44.441611,25.971822,,,,
7376,668,Celofibrei,,44.390681,26.019475,,,,
12270,6680,Sergent Ilie Petre,,44.44132,25.977311,,,,
12262,6681,Valea Ialomitei,,44.421166,26.0141,,,,
12271,6682,Tineretului 13,,44.44162,25.983567,,,,
12279,6684,Sfintii Voievozi,,44.447299,26.086879,,,,
12280,6685,Bd. Nicolae Balcescu,,44.439148,26.099982,,,,
12281,6686,Sala Palatului,,44.437664,26.095355,,,,
12282,6687,Stirbei Voda,,44.439925,26.093437,,,,
12283,6688,C.A. Rosetti,,44.441226,26.103902,,,,
12284,6689,Vasile Lascar,,44.442184,26.11,,,,
12285,6690,Calea Mosilor,,44.440819,26.116361,,,,
12286,6691,Verzisori,,44.415797,26.10935,,,,
12287,6692,Verzisori,,44.415772,26.109429,,,,
12288,6693,Aeroport Baneasa,,44.49728,26.079613,,,,
12289,6694,INML,,44.38862,26.143113,,,,
12290,6695,Iuliu Hatieganu,,44.389385,26.148114,,,,
12291,6696,Intrarea serelor,,44.392215,26.154783,,,,
12292,6697,Iuliu Hatieganu,,44.389098,26.146425,,,,
12303,6698,Primaverii,,44.391483,26.28446,,,,
7301,670,Grivitei,,44.372184,25.977938,,,,
12295,6701,Brasov,,44.414245,26.036617,,,,
12296,6702,Rasadnitei,,44.47389,26.004937,,,,
12298,6703,Chiajna-Stelelor,,44.441266,25.97446,,,,
12297,6704,Chiajna-Stelelor,,44.441486,25.972543,,,,
12312,6705,Peris Sat,,44.687687,25.976395,,,,
12313,6706,Parcului,,44.682338,25.979257,,,,
12314,6707,Pelicanului,,44.678647,25.98232,,,,
12315,6708,Patrana,,44.675489,25.985769,,,,
12316,6709,Gara Peris,,44.677482,25.997485,,,,
8423,671,Buda,,44.354302,25.959166,,,,
12311,6710,Parcului,,44.68291,25.978947,,,,
12310,6711,Pelicanului,,44.679225,25.98189,,,,
12309,6712,Patrana,,44.675225,25.984941,,,,
12308,6713,Gara Peris,,44.676982,25.997022,,,,
12321,6714,Razorului,,44.451085,26.00378,,,,
12320,6715,Acvila,,44.447477,25.9954,,,,
12319,6716,Rezervelor,,44.448223,25.99145,,,,
12322,6717,Piata Eroii Revolutiei,,44.404588,26.096692,,,,
12323,6718,Piata Eroii Revolutiei,,44.404074,26.096944,,,,
12326,6719,Cartier Henri Coanda,,44.4976,26.097341,,,,
8424,672,Aeroportului,,44.351147,25.954874,,,,
12327,6720,Cartier Henri Coanda,,44.49767,26.09835,,,,
12325,6721,Voluntarilor,,44.416086,26.149967,,,,
12340,6727,Piata Presei,,44.4786,26.07209,,,,
12339,6728,Piata Presei,,44.47879,26.07283,,,,
8425,673,Dispensar,,44.347584,25.950039,,,,
8426,674,Dispensar,,44.347618,25.950387,,,,
8427,675,Aeroportului,,44.351341,25.955472,,,,
8428,676,Buda,,44.354368,25.95947,,,,
7292,677,Grivitei,,44.372067,25.977974,,,,
7299,679,Celofibrei,,44.39031,26.018597,,,,
3482,68,Cimitirul Calvin,,44.45773,26.053133,,,,
7286,680,Gladiolelor,,44.392391,26.025966,,,,
3800,681,Valea Lunga,,44.433883,26.016658,,,,
7277,684,Adesgo,,44.411139,26.099871,,,,
7274,685,Cutitul de Argint,,44.408274,26.096349,,,,
3787,689,Aleea Raul Targului,,44.379992,26.126985,,,,
3480,69,George Valsan,,44.460395,26.047283,,,,
3853,690,Aliorului,,44.382694,26.124423,,,,
3852,692,Piata Gorjului,,44.433991,26.021597,,,,
3829,693,Piata Sudului,,44.39256,26.120845,,,,
3837,697,Veteranilor,,44.434145,26.031157,,,,
3362,699,Gara de Nord,,44.448028,26.076441,,,,
3134,7,Baba Novac,,44.42508,26.137511,,,,
3493,70,Bd. Constructorilor,,44.463221,26.041826,,,,
3230,700,Delea Veche,,44.431799,26.129887,,,,
3236,702,Piata Buzesti,,44.447759,26.082342,,,,
3232,703,Piata Victoriei,,44.451633,26.084515,,,,
3234,704,Piata Victoriei,,44.452456,26.084145,,,,
3741,706,Lujerului,,44.434151,26.03617,,,,
6876,707,Palatul Parlamentului,,44.424975,26.084155,,,,
3739,708,Liceul Tudor Vladimirescu,,44.43423,26.042959,,,,
6875,709,Piata Leul,,44.434041,26.059123,,,,
3494,71,Godeni,,44.46477,26.038926,,,,
3726,710,Piata Sudului,,44.393098,26.120593,,,,
11212,7100,Biserica Veche,,44.52711,26.242882,,,,
11255,7101,Biserica Veche,,44.527512,26.24225,,,,
11254,7102,Dispensar,,44.525366,26.246434,,,,
11213,7103,Dispensar,,44.525036,26.246913,,,,
11214,7104,Primaria Afumati,,44.523281,26.25032,,,,
11253,7105,Primaria Afumati,,44.524043,26.249027,,,,
11210,7106,Str. Dacia,,44.530006,26.237218,,,,
11257,7107,Str. Dacia,,44.530298,26.236777,,,,
11260,7108,Str. Doamna Stanca,,44.534537,26.227986,,,,
11207,7109,Str. Doamna Stanca,,44.534169,26.228666,,,,
3725,711,Emil Racovita,,44.388298,26.11901,,,,
11208,7110,Str. Domnita Ralu,,44.532618,26.232094,,,,
11259,7111,Str. Domnita Ralu,,44.532991,26.231492,,,,
11216,7112,Str. Garoafelor,,44.519093,26.258367,,,,
11251,7113,Str. Garoafelor,,44.519466,26.257851,,,,
11252,7114,Str. Moinesti,,44.521341,26.254249,,,,
11215,7115,Str. Moinesti,,44.520939,26.254816,,,,
11209,7116,Str. Motrului,,44.530817,26.235604,,,,
11258,7117,Str. Motrului,,44.531223,26.23497,,,,
11211,7118,Str. Scolii,,44.528395,26.240365,,,,
11256,7119,Str. Scolii,,44.528792,26.239741,,,,
11217,7120,Str. Teiului,,44.516078,26.261508,,,,
11250,7121,Str. Teiului,,44.516459,26.261278,,,,
11461,7122,Stupina,,44.532413,26.255916,,,,
11503,7123,Stupina,,44.532857,26.256422,,,,
11502,7124,Tufanului,,44.529153,26.253463,,,,
11462,7125,Tufanului,,44.528314,26.253308,,,,
11232,7126,Str. Craitei,,44.44473,26.349686,,,,
12143,7127,Notariat,,44.519414,26.24432,,,,
12144,7128,Notariat,,44.519269,26.244181,,,,
11322,7129,CFR Balaceanca,,44.404925,26.276081,,,,
3721,713,Aliorului,,44.382295,26.124625,,,,
11323,7131,Intrarea Ogorului,,44.396632,26.283088,,,,
11337,7132,Intrarea Ogorului,,44.397135,26.282655,,,,
11324,7133,Mieilor,,44.394555,26.287593,,,,
11336,7134,Mieilor,,44.39486,26.287152,,,,
11325,7135,Spital Balaceanca,,44.392415,26.291254,,,,
11335,7136,Spital Balaceanca,,44.393313,26.290602,,,,
11326,7137,Strada Veche,,44.388867,26.297744,,,,
11334,7138,Strada Veche,,44.389363,26.297126,,,,
3724,714,Aleea Raul Targului,,44.380472,26.126396,,,,
12151,7147,Karema,,44.583281,26.234092,,,,
12150,7148,Karema,,44.583425,26.234118,,,,
3723,715,Facultatea de Electronica,,44.434436,26.055484,,,,
3716,716,Bd. Nicolae Grigorescu,,44.429123,26.160921,,,,
3715,717,I.O.R.,,44.428833,26.155893,,,,
3720,718,Soseaua Campia Libertatii,,44.426249,26.150447,,,,
3718,719,Ion Tuculescu,,44.4252,26.143708,,,,
12163,7194,Club Sportiv,,44.502623,25.975627,,,,
12164,7195,Cartier Tineret III,,44.501908,25.972163,,,,
12165,7196,Castanilor,,44.499849,25.973529,,,,
12166,7197,Cartier Tineret III,,44.501424,25.970162,,,,
12167,7198,Club Sportiv,,44.502511,25.975312,,,,
12232,7199,Vasile Alecsandri,,44.516519,26.142308,,,,
3496,72,Piata Giulesti,,44.466285,26.035603,,,,
3704,720,Soseaua Mihai Bravu,,44.424391,26.138253,,,,
12233,7200,Alexander Residence,,44.515913,26.148982,,,,
12234,7201,Elisabeta Rizea,,44.514315,26.155011,,,,
12227,7202,Elisabeta Rizea,,44.514368,26.154408,,,,
12228,7203,Alexander Residence,,44.515409,26.150887,,,,
12229,7204,Mircea Eliade,,44.517114,26.146214,,,,
12230,7205,New Piont Villas,,44.519721,26.146021,,,,
12231,7206,Park Line Residence,,44.521857,26.145468,,,,
3703,721,Bd. Decebal,,44.428697,26.132292,,,,
11224,7210,Liceul Traian Lalescu,,44.463209,26.328249,,,,
11244,7211,Liceul Traian Lalescu,,44.463738,26.328164,,,,
11233,7212,Str. Soarelui,,44.434462,26.352634,,,,
11236,7213,Str. Soarelui,,44.434822,26.352682,,,,
12235,7214,Olga Gudynn International School,,44.530731,26.142878,,,,
12300,7217,Nucului,,44.461558,26.182826,,,,
12301,7218,Trifoiului,,44.462025,26.184689,,,,
12302,7219,Victor Dumitrescu,,44.459187,26.18535,,,,
12317,7220,Castanilor,,44.588777,26.236647,,,,
12318,7221,Castanilor,,44.589355,26.236935,,,,
12330,7223,Depozit,,44.730375,26.300593,,,,
12331,7224,Depozit,,44.728332,26.301349,,,,
3700,723,Calea Calarasilor,,44.431455,26.129824,,,,
3699,724,Tepes Voda,,44.435396,26.125279,,,,
3696,725,Matei Voievod,,44.438768,26.122944,,,,
3695,726,Traian,,44.438755,26.11967,,,,
3694,727,Calea Mosilor,,44.437934,26.115002,,,,
3692,728,Pod Cotroceni,,44.439138,26.070853,,,,
11516,7287,Putna,,44.614155,26.260653,,,,
11447,7289,Tismana,,44.61191,26.256364,,,,
3689,729,Universitate,,44.435246,26.100647,,,,
11517,7290,Tismana,,44.611874,26.256155,,,,
12174,7291,Halta,,44.656297,26.302939,,,,
12173,7292,Halta,,44.656398,26.302827,,,,
3497,73,Copsa Mica,,44.467453,26.031779,,,,
3682,730,Piata Mihail Kogalniceanu,,44.434798,26.088037,,,,
3681,731,Piata Mihail Kogalniceanu,,44.43458,26.087069,,,,
6870,732,Calea Ferentari,,44.407745,26.076185,,,,
11222,7341,Gradinita Pasarea,,44.470718,26.320787,,,,
11245,7342,Gradinita Pasarea,,44.471148,26.32012,,,,
11223,7343,Str. Brasov,,44.467201,26.326307,,,,
11221,7344,Str. Ion Creanga,,44.472489,26.318426,,,,
11246,7345,Str. Ion Creanga,,44.472985,26.318173,,,,
11329,7346,Iazului,,44.374697,26.312237,,,,
11331,7347,Iazului,,44.37501,26.312057,,,,
11327,7348,Iesire Sat Balaceanca,,44.385253,26.303075,,,,
11333,7349,Iesire Sat Balaceanca,,44.385603,26.302702,,,,
6865,735,Soseaua Panduri,,44.429629,26.064135,,,,
11330,7350,Sat Posta,,44.371457,26.315367,,,,
11328,7351,Scoala,,44.37958,26.309995,,,,
11332,7352,Scoala,,44.380356,26.309761,,,,
3677,736,Lt. Nicolae Gaina,,44.426103,26.057052,,,,
3676,737,Orizont,,44.42512,26.05024,,,,
11710,7373,1 Decembrie 1918,,44.399947,26.317715,,,,
11720,7374,1 Decembrie 1918,,44.399764,26.317905,,,,
11708,7375,Biserica,,44.405236,26.311969,,,,
11722,7376,Biserica,,44.405817,26.311454,,,,
11711,7377,Ferdinand,,44.396822,26.319628,,,,
11719,7378,Ferdinand,,44.397418,26.31943,,,,
11712,7379,Tanganu-Gara,,44.394084,26.320549,,,,
6869,738,Favorit,,44.424251,26.046142,,,,
11721,7380,Gradinita,,44.402449,26.315104,,,,
11709,7381,Gradinita,,44.401735,26.31576,,,,
11707,7382,Scoala,,44.407567,26.307696,,,,
11723,7383,Scoala,,44.408144,26.307457,,,,
6868,739,Drumul Taberei 34,,44.423202,26.041292,,,,
3498,74,Institutul Pasteur,,44.468691,26.027801,,,,
6858,740,Piata Drumul Taberei,,44.422427,26.035854,,,,
6861,741,Poiana Muntelui,,44.422593,26.029771,,,,
11680,7413,After School,,44.589608,26.135576,,,,
11641,7414,After School,,44.589196,26.135562,,,,
11681,7415,Dimieni,,44.595758,26.134342,,,,
11640,7416,Dimieni,,44.595523,26.134388,,,,
11679,7417,Intrare Dimieni,,44.586104,26.137923,,,,
11642,7418,Iesire Dimieni,,44.585501,26.137953,,,,
6860,742,Romancierilor,,44.423183,26.024602,,,,
10150,743,Piata Valea Ialomitei,,44.420994,26.019845,,,,
11521,7437,Biserica Maineasca,,44.574819,26.344505,,,,
11527,7438,Biserica Maineasca,,44.574646,26.344524,,,,
11518,7439,Maineasca,,44.57318,26.360721,,,,
6859,744,Dr. Staicovici,,44.429618,26.082112,,,,
11528,7440,Rodnei,,44.574988,26.352984,,,,
11519,7441,Rodnei,,44.575056,26.352484,,,,
11520,7442,Sala Festivitati,,44.575133,26.348007,,,,
11515,7443,Dezmembrari,,44.604931,26.278481,,,,
11449,7444,Dezmembrari,,44.604818,26.278585,,,,
11505,7445,Putul Puscoi,,44.568538,26.294217,,,,
11507,7446,Ancu Miron,,44.576496,26.304225,,,,
11457,7447,Ancu Miron,,44.576189,26.303748,,,,
11508,7448,Brandusei,,44.579396,26.310131,,,,
11456,7449,Brandusei,,44.579324,26.309592,,,,
11522,7450,Cameliei,,44.580672,26.316596,,,,
11526,7451,Cameliei,,44.580429,26.317318,,,,
11509,7452,Petrachioaia Centru,,44.580983,26.313315,,,,
11455,7453,Petrachioaia Centru,,44.580555,26.312662,,,,
11459,7454,Putul Puscoi,,44.568207,26.293664,,,,
11510,7455,Scoala Petrachioaia,,44.584819,26.310459,,,,
11454,7456,Scoala Petrachioaia,,44.584362,26.310667,,,,
11506,7457,Socului,,44.573453,26.300359,,,,
11458,7458,Socului,,44.573071,26.299743,,,,
6854,746,Piata Valea Ialomitei,,44.42131,26.020976,,,,
6853,747,Romancierilor,,44.422962,26.025679,,,,
6852,748,Poiana Muntelui,,44.422318,26.030204,,,,
11524,7480,Surlari-Scolii,,44.572133,26.315381,,,,
11200,7491,Cartierul Nou,,44.538704,26.18845,,,,
11267,7492,Cartierul Nou,,44.539046,26.188333,,,,
11201,7493,Gradinita,,44.537684,26.194952,,,,
11266,7494,Gradinita,,44.537833,26.196347,,,,
11523,7495,Surlari-D.G. Radu,,44.569789,26.316838,,,,
11525,7496,Surlari-Scolii,,44.572099,26.315343,,,,
11275,7497,1 Decembrie,,44.549371,26.131472,,,,
11192,7498,1 Decembrie,,44.549335,26.132104,,,,
11198,7499,Asociatia Columbofila,,44.545568,26.153517,,,,
3499,75,Cartier 16 Februarie,,44.47018,26.02201,,,,
7013,750,Drumul Taberei 35,,44.423019,26.041793,,,,
11269,7500,Asociatia Columbofila,,44.545696,26.152715,,,,
11193,7501,Avram Iancu,,44.5495,26.13597,,,,
11274,7502,Avram Iancu,,44.549536,26.135396,,,,
11675,7503,Balta Pasarea,,44.552944,26.143387,,,,
11646,7504,Balta Pasarea,,44.553125,26.143292,,,,
11194,7505,Biserica,,44.54965,26.138903,,,,
11273,7506,Biserica,,44.54968,26.138363,,,,
11677,7509,Centrul De Evenimente,,44.560438,26.142327,,,,
7014,751,Favorit,,44.424284,26.047655,,,,
11644,7510,Centrul De Evenimente,,44.560043,26.142333,,,,
11197,7511,Cimitir,,44.546776,26.148267,,,,
11270,7512,Cimitir,,44.547006,26.147769,,,,
11189,7513,Codrului,,44.549851,26.120965,,,,
11278,7514,Codrului,,44.550076,26.12019,,,,
11188,7515,Complex Rezidential,,44.550652,26.117282,,,,
11279,7516,Complex Rezidential,,44.550918,26.11632,,,,
11271,7518,Marasesti,,44.548102,26.144461,,,,
11196,7519,Marasesti,,44.547847,26.14505,,,,
3914,752,Lt. Nicolae Gaina,,44.425958,26.057327,,,,
11191,7521,Padurii,,44.54887,26.128062,,,,
11276,7522,Padurii,,44.548774,26.12734,,,,
11678,7523,Pepiniera,,44.568594,26.140967,,,,
11643,7524,Pepiniera,,44.568116,26.140976,,,,
11190,7525,Tunari (1 Decembrie),,44.548998,26.125209,,,,
11277,7526,Tunari (1 Decembrie),,44.549122,26.124912,,,,
11195,7527,Primaria Tunari,,44.549068,26.141115,,,,
11272,7529,Primaria Tunari,,44.54918,26.141026,,,,
11187,7531,Revolutionarilor,,44.551845,26.111635,,,,
11280,7532,Revolutionarilor,,44.552039,26.111019,,,,
11674,7533,Scoala Tunari,,44.550352,26.142161,,,,
11199,7537,Statia De Epurare,,44.546764,26.161671,,,,
11268,7538,Statia De Epurare,,44.546369,26.161339,,,,
11676,7539,Vasile Lupu,,44.556706,26.142974,,,,
7011,754,Profesor Dr. Rainer,,44.42885,26.066608,,,,
11645,7540,Vasile Lupu,,44.556281,26.142968,,,,
11235,7542,Vadu Anei,,44.424366,26.353751,,,,
11513,7543,Biserica Vanatori,,44.59681,26.289312,,,,
11451,7544,Biserica Vanatori,,44.596426,26.289555,,,,
11511,7545,Mihai Eminescu,,44.589438,26.299773,,,,
11453,7546,Mihai Eminescu,,44.589372,26.300219,,,,
11512,7547,Scoala Vanatori,,44.591944,26.294669,,,,
11452,7548,Scoala Vanatori,,44.591483,26.295063,,,,
11715,7549,Tanganu,,44.386206,26.320361,,,,
7012,755,Carol Davila,,44.432161,26.069886,,,,
11716,7553,Nicolae Iorga,,44.387152,26.32354,,,,
11714,7554,Nicolae Iorga,,44.387014,26.323527,,,,
11717,7555,Intrare Tanganu Mic,,44.38959,26.322195,,,,
11713,7556,Intrare Tanganu Mic,,44.389291,26.322232,,,,
11718,7557,Tanganu-Gara,,44.394239,26.320569,,,,
3926,756,Liceul Tudor Vladimirescu,,44.434405,26.04176,,,,
3929,757,Veteranilor,,44.4343,26.028606,,,,
11786,7570,Cartier Azur 1-Mega Image,,44.494196,26.145614,,,,
11575,7577,Cartier Azur 1-Mega Image,,44.494058,26.145834,,,,
11557,7578,Cartier Azur 1-Mega Image,,44.494502,26.144737,,,,
11574,7579,Cartier Azur 2,,44.494422,26.143058,,,,
3923,758,Piata Mihail Kogalniceanu,,44.434388,26.088186,,,,
11558,7580,Cartier Azur 2,,44.494394,26.142487,,,,
11573,7581,Emil Garleanu-Biserica,,44.494133,26.141126,,,,
11559,7582,Emil Garleanu-Biserica,,44.494014,26.140202,,,,
3925,759,Universitate,,44.435151,26.100973,,,,
3500,76,Cartier 16 Februarie,,44.470134,26.022119,,,,
3896,760,Piata Rosetti,,44.435995,26.105255,,,,
11448,7601,Putna,,44.614346,26.261063,,,,
11781,7602,Victoriei,,44.598938,26.24059,,,,
11782,7603,Victoriei,,44.599222,26.24076,,,,
3899,761,Calea Mosilor,,44.437852,26.115317,,,,
3902,762,Traian,,44.438688,26.119722,,,,
3891,763,Matei Voievod,,44.438527,26.123026,,,,
11261,7632,Branduselor,,44.536639,26.217745,,,,
11206,7633,Branduselor,,44.536561,26.217892,,,,
11262,7634,Mimozelor,,44.537403,26.212472,,,,
11205,7635,Mimozelor,,44.536969,26.213126,,,,
12214,7636,Piteasca,,44.502916,26.335485,,,,
12212,7637,Piteasca Scolii,,44.491059,26.326629,,,,
12216,7638,Piteasca Scolii,,44.490947,26.326379,,,,
12213,7639,Piteasca 2,,44.498417,26.334272,,,,
3892,764,Tepes Voda,,44.435604,26.125066,,,,
12215,7640,Piteasca 2,,44.498265,26.333802,,,,
11546,7644,Constantin David,,44.482582,26.182279,,,,
11588,7645,Constantin David,,44.482375,26.181951,,,,
11544,7646,Strada Garii Pantelimon,,44.48063,26.186336,,,,
11590,7647,Strada Garii Pantelimon,,44.480564,26.186429,,,,
3893,765,Calea Calarasilor,,44.431993,26.129483,,,,
11864,7650,Troitei,,44.512951,25.99252,,,,
11901,7651,Troitei,,44.512519,25.992085,,,,
11866,7652,Prunului,,44.514754,25.983869,,,,
11899,7653,Prunului,,44.51444,25.984047,,,,
11870,7654,Musetelului,,44.513815,25.975808,,,,
11896,7655,Musetelului,,44.513955,25.975547,,,,
11878,7656,Palatul Brancovenesc,,44.529186,26.001325,,,,
12237,7657,Vadu Anei,,44.424358,26.353959,,,,
3894,766,Piata Gorjului,,44.434194,26.021494,,,,
3906,767,Bd. Decebal,,44.427955,26.133139,,,,
3907,768,Valea Lunga,,44.43408,26.015447,,,,
3459,77,Institutul Pasteur,,44.468703,26.027604,,,,
3880,770,Ion Tuculescu,,44.425219,26.144886,,,,
3881,771,Soseaua Campia Libertatii,,44.425938,26.149682,,,,
3877,772,I.O.R.,,44.428628,26.155572,,,,
3878,773,Bd. Nicolae Grigorescu,,44.429451,26.16311,,,,
3884,774,Baicului,,44.447399,26.143082,,,,
3885,775,Gara Obor,,44.44862,26.140409,,,,
3882,776,Soseaua Pantelimon,,44.445941,26.133936,,,,
3883,777,Soseaua Mihai Bravu,,44.444499,26.130638,,,,
11796,7777,Agropol,,44.354057,26.210005,,,,
3886,778,Oborul Nou,,44.442911,26.127127,,,,
3887,779,Foisorul de Foc,,44.439828,26.120061,,,,
3457,78,Copsa Mica,,44.467569,26.031287,,,,
11185,7802,Paltinului,,44.554915,26.096539,,,,
11282,7803,Traian Vuia,,44.555091,26.095914,,,,
3856,781,Apusului,,44.434039,26.012341,,,,
8544,783,Sat Petresti,,44.600231,26.063282,,,,
3860,784,Gara de Nord,,44.445651,26.074987,,,,
11181,7841,Primarie,,44.551083,26.073529,,,,
11286,7842,23 August,,44.551156,26.07217,,,,
11182,7843,Cimitirul Otopeni,,44.551153,26.078684,,,,
11285,7844,Mures,,44.551075,26.076462,,,,
11183,7845,Steaua Rosie,,44.552768,26.08437,,,,
11284,7846,Steaua Rosie,,44.552788,26.08419,,,,
11184,7847,Biserica Sfantul Nicolae,,44.5533,26.088621,,,,
3863,785,Witing,,44.441928,26.071683,,,,
11283,7850,Bisericii,,44.553346,26.088546,,,,
11186,7851,Luxor,,44.554571,26.098237,,,,
11281,7852,Putna,,44.55471,26.097816,,,,
11446,7864,Gagu,,44.60243,26.24351,,,,
11460,7865,Soseaua Petrachioaia,,44.564538,26.289642,,,,
11504,7866,Soseaua Petrachioaia,,44.563444,26.288553,,,,
11514,7867,Satul Creata,,44.600031,26.286234,,,,
11450,7868,Satul Creata,,44.599711,26.286426,,,,
11931,7870,Crisul Repede,,44.384127,26.02409,,,,
11932,7871,Plevnei,,44.382083,26.019423,,,,
11933,7872,Libertatii,,44.385653,26.014354,,,,
11934,7873,Campia Libertatii,,44.383203,26.008201,,,,
11935,7874,Dealului,,44.38081,26.003067,,,,
11936,7875,Ariesului,,44.377803,26.005763,,,,
11937,7876,Adora Urban Village,,44.375664,26.009406,,,,
11925,7877,Adora Urban Village,,44.375685,26.009381,,,,
11926,7878,Dealului,,44.3781,26.005089,,,,
11927,7879,Monumentului,,44.381198,26.002303,,,,
3865,789,Foisorul de Foc,,44.440425,26.121685,,,,
3455,79,Piata Giulesti,,44.46635,26.035218,,,,
3847,790,Soseaua Mihai Bravu,,44.443289,26.128286,,,,
12275,7904,Studiourile Buftea,,44.573205,25.93704,,,,
12276,7905,Studiourile Buftea,,44.573472,25.936843,,,,
3848,791,Soseaua Pantelimon,,44.446726,26.136039,,,,
3846,792,Gara Obor,,44.448265,26.140589,,,,
3844,793,Baicului,,44.447364,26.142808,,,,
3842,795,Bd. Pierre de Coubertin,,44.441055,26.149776,,,,
3841,796,Aura Buzescu,,44.440055,26.145825,,,,
3840,797,Lt. Victor Manu,,44.438666,26.140625,,,,
3839,798,Agricultorilor,,44.43738,26.132893,,,,
3838,799,Scoala Iancului,,44.438874,26.123258,,,,
11627,7998,Tineretului,,44.380536,26.183626,,,,
11615,7999,Tineretului,,44.380378,26.184359,,,,
5971,8,Pasaj Otopeni,,44.533847,26.069143,,,,
3467,80,Godeni,,44.464949,26.038494,,,,
3660,800,Foisorul de Foc,,44.440526,26.120903,,,,
3661,801,Calea Mosilor,,44.444098,26.11793,,,,
3657,802,Piata Gemeni,,44.445153,26.113691,,,,
6424,803,Piata Romana,,44.447221,26.097073,,,,
3655,804,Piata 13 Septembrie,,44.4154,26.057084,,,,
3468,81,Bd. Constructorilor,,44.463024,26.042085,,,,
3714,810,Piata Romana,,44.44732,26.096923,,,,
3707,811,Piata 13 Septembrie,,44.415821,26.057409,,,,
3708,812,Calea Mosilor,,44.443681,26.118707,,,,
6464,813,Foisorul de Foc,,44.440175,26.120533,,,,
3709,814,Scoala Iancului,,44.438677,26.124069,,,,
3710,815,Agricultorilor,,44.437269,26.131834,,,,
3711,816,Soseaua Mihai Bravu,,44.437802,26.137438,,,,
3712,817,Lt. Victor Manu,,44.438533,26.1405,,,,
3713,818,Aura Buzescu,,44.439941,26.14586,,,,
3705,819,Bd. Pierre de Coubertin,,44.440968,26.150093,,,,
3465,82,George Valsan,,44.460524,26.046917,,,,
3688,821,Visana,,44.410758,26.110056,,,,
3155,823,Oficiul Postal 72,,44.414342,26.173747,,,,
6457,824,Pajurei,,44.480608,26.042773,,,,
3686,828,Carpati,,44.473135,26.048636,,,,
3687,829,Depoul Bucurestii Noi,,44.478033,26.04476,,,,
3466,83,Cimitirul Calvin,,44.457744,26.052939,,,,
3742,830,Pajurei,,44.480534,26.043792,,,,
3744,831,Piata Pajura,,44.482378,26.049137,,,,
3743,832,Faurei,,44.48278,26.052135,,,,
3752,833,Dridu,,44.482465,26.055407,,,,
3750,834,Dridu,,44.482839,26.055302,,,,
3756,835,Faurei,,44.482749,26.051486,,,,
3754,836,Piata Pajura,,44.482223,26.048,,,,
3747,837,Pajurei,,44.479769,26.043172,,,,
3746,838,Soseaua Chitilei,,44.477253,26.045125,,,,
3748,839,Carpati,,44.472863,26.04851,,,,
3227,844,Oficiul Postal 72,,44.413847,26.173534,,,,
8688,846,Camin Cultural,,44.442924,25.876375,,,,
3729,848,Gradina Botanica,,44.436408,26.065493,,,,
6476,849,Bd. Lacul Tei,,44.464663,26.126406,,,,
3474,85,Spitalul Panait Sarbu,,44.45016,26.060928,,,,
6524,851,Maica Domnului,,44.461608,26.118273,,,,
6523,852,Luigi Galvani,,44.459865,26.113659,,,,
6525,853,Circul Bucuresti,,44.457752,26.108027,,,,
6527,855,Margeanului,,44.408231,26.059065,,,,
6529,857,Complex Comercial,,44.412136,26.060713,,,,
3780,859,Drumul Sarii,,44.425523,26.059929,,,,
3761,860,Nabucului,,44.420683,26.059238,,,,
6499,861,Petre Ispirescu,,44.415019,26.061306,,,,
6502,862,Calea 13 Septembrie,,44.417598,26.058908,,,,
3765,863,Nabucului,,44.421288,26.059405,,,,
6500,865,Buzoieni,,44.407468,26.059455,,,,
6505,867,Piata Rahova,,44.406595,26.063451,,,,
6503,869,Circul Bucuresti,,44.458137,26.109272,,,,
3470,87,Gara de Nord,,44.445515,26.07436,,,,
6566,870,Luigi Galvani,,44.459285,26.112282,,,,
6565,871,Maica Domnului,,44.461985,26.119695,,,,
3343,878,Soseaua Colentina,,44.453188,26.128052,,,,
3801,880,Berzei,,44.437,26.0823,,,,
6554,881,Piata Unirii,,44.429126,26.102396,,,,
3802,883,Calea 13 Septembrie,,44.41796,26.058635,,,,
3797,884,Costache Stamate,,44.404258,26.120946,,,,
3330,885,Brasov,,44.427292,26.03199,,,,
6552,887,Piata Natiunile Unite,,44.429987,26.096944,,,,
6550,888,Calea 13 Septembrie,,44.424645,26.08991,,,,
3329,889,Bd. 1 Decembrie 1918,,44.436254,26.173384,,,,
6824,89,Complex Comercial,,44.411024,26.060177,,,,
3360,890,Bd. 1 Decembrie 1918,,44.436412,26.172436,,,,
6597,892,Aviator Popisteanu,,44.468325,26.059939,,,,
3369,893,Sergent Moise,,44.427941,26.040689,,,,
6599,895,Povernei,,44.449126,26.092724,,,,
3855,896,Bd. Iuliu Maniu,,44.433513,26.054474,,,,
6598,897,Piata Victoriei,,44.451551,26.087814,,,,
3849,899,Apusului,,44.433825,26.012459,,,,
5968,9,Elie Radu,,44.433425,26.091552,,,,
6808,90,Emil Racovita,,44.379332,26.128157,,,,
3939,900,Pod Cotroceni,,44.438815,26.070776,,,,
6849,901,Muzeul Taranului Roman,,44.453804,26.082784,,,,
6846,903,Aviator Popisteanu,,44.469291,26.057973,,,,
3936,904,Bd. Dinicu Golescu,,44.44225,26.078042,,,,
3937,905,Ministerul Transporturilor,,44.444742,26.07822,,,,
6847,906,Valea Oltului,,44.424628,26.010199,,,,
6001,907,Textila Militari,,44.424237,26.005235,,,,
6000,908,Piata Victoriei,,44.451512,26.08743,,,,
12000,9150,Studiourile Buftea,,44.57323,25.937018,,,,
12001,9151,Studiourile Buftea,,44.573516,25.93671,,,,
5987,918,Textila Militari,,44.424111,26.005497,,,,
5986,919,Valea Oltului,,44.423937,26.01209,,,,
3836,92,Turnu Magurele,,44.377554,26.119764,,,,
5972,920,Orlando,,44.449664,26.091034,,,,
5978,921,Barajul Dunarii,,44.425178,26.169341,,,,
5980,922,Liviu Rebreanu,,44.425708,26.163301,,,,
5977,923,Scoala Generala 145,,44.455175,26.143102,,,,
3160,924,Sportului,,44.471502,26.150796,,,,
5974,925,Parcul Titan,,44.428587,26.162221,,,,
5976,926,Liviu Rebreanu,,44.425022,26.164523,,,,
5973,927,Barajul Dunarii,,44.424582,26.171888,,,,
3834,93,Straduintei,,44.381894,26.115738,,,,
3671,930,Pridvorului,,44.399978,26.121133,,,,
3672,931,Bd. Alexandru Obregia,,44.376833,26.121006,,,,
3673,932,Pridvorului,,44.399343,26.120781,,,,
5955,934,Bd. Abatorului,,44.409754,26.116695,,,,
3674,935,Nitu Vasile,,44.388547,26.118869,,,,
5960,937,Bd. Constantin Brancoveanu,,44.398898,26.108181,,,,
5962,939,Cimitirul Serban Voda,,44.402392,26.098489,,,,
3833,94,Dragos Mladinovici,,44.38565,26.11631,,,,
5924,940,Cimitirul Serban Voda,,44.401021,26.100626,,,,
3664,944,Bd. Alexandru Obregia,,44.388001,26.117487,,,,
3662,945,Dragos Mladinovici,,44.385342,26.115816,,,,
3663,946,Straduintei,,44.381918,26.115384,,,,
5934,947,Fabrica de Paine,,44.405421,26.074271,,,,
3665,949,Piata Resita,,44.379805,26.099217,,,,
3830,95,Emil Racovita,,44.388428,26.11806,,,,
3778,950,Straja,,44.384172,26.101182,,,,
3777,951,Bd. Constantin Brancoveanu,,44.387562,26.109257,,,,
3779,953,Bd. Alexandru Obregia,,44.388617,26.11666,,,,
3775,954,Bd. Alexandru Obregia,,44.38858,26.1163,,,,
3774,955,Bd. Constantin Brancoveanu,,44.38764,26.109246,,,,
3776,957,Straja,,44.385159,26.101971,,,,
6040,960,Socului,,44.352188,26.008058,,,,
3769,961,Tacerii,,44.402842,26.050893,,,,
6039,962,Socului,,44.351867,26.008591,,,,
3766,964,Trambitei,,44.411825,26.05546,,,,
6037,966,Palatul Parlamentului,,44.430572,26.086131,,,,
6036,967,Manastirea Casin,,44.467965,26.073421,,,,
3764,968,Teatrul National,,44.435924,26.104206,,,,
6034,969,Manastirea Casin,,44.467854,26.075256,,,,
3585,97,Calea Ferentari,,44.413261,26.073835,,,,
3749,970,Lucretiu Patrascanu,,44.430626,26.16734,,,,
3751,973,Bd. Basarabia,,44.435175,26.169065,,,,
3755,975,Constantin Brancusi,,44.430085,26.166159,,,,
6019,977,Sala Palatului,,44.437766,26.094929,,,,
6020,979,Dr. Staicovici,,44.429271,26.080779,,,,
3584,98,Petre Ispirescu,,44.410131,26.069453,,,,
3728,982,Soseaua Mihai Bravu,,44.437748,26.137138,,,,
3226,983,Pasaj Victoria,,44.452548,26.091864,,,,
6010,984,Sportului,,44.471737,26.151418,,,,
3225,986,Stadion,,44.38899,26.132587,,,,
3222,987,Lunca Barzesti,,44.391386,26.126942,,,,
3220,988,Lunca Barzesti,,44.391113,26.127524,,,,
3219,989,Stadion,,44.389078,26.132296,,,,
8862,99,Biobaza Darvari,,44.419601,25.873168,,,,
3367,990,Anghel Nutu,,44.375909,26.090978,,,,
11818,9901,Macului,,44.481296,25.974382,,,,
11819,9902,Fortului,,44.477801,25.972873,,,,
11820,9906,1 Decembrie,,44.471284,25.968886,,,,
11821,9907,Traian,,44.470537,25.965409,,,,
11822,9908,Dacia,,44.470346,25.960605,,,,
3368,991,Anghel Nutu,,44.376211,26.091013,,,,
3366,992,Bd. Lacul Tei,,44.46452,26.125973,,,,
3364,994,Cimitirul Armenesc,,44.444499,26.140907,,,,
3365,995,Baicului,,44.444282,26.143252,,,,
6106,996,Piata Virgiliu,,44.441795,26.079943,,,,
3854,999,Costache Stamate,,44.403968,26.121288,,,,
12335,999351,Cimitirul Serban Vosa ,,44.401828,26.098828,,,,
9539,S0011,Izvor,,44.433083,26.089954,,,,
9540,S0012,Izvor,,44.432998,26.089981,,,,
9543,S0021,Piata Unirii,,44.427689,26.104004,,,,
9544,S0022,Piata Unirii,,44.427892,26.104036,,,,
9552,S0023,Piata Unirii,,44.427513,26.101826,,,,
9553,S0024,Piata Unirii,,44.427486,26.101702,,,,
9556,S0031,Berceni,,44.360916,26.149585,,,,
9557,S0032,Berceni,,44.360909,26.149526,,,,
9559,S0041,Dimitrie Leonida,,44.368809,26.143652,,,,
9560,S0042,Dimitrie Leonida ,,44.368782,26.14355,,,,
9562,S0051,Aparatorii Patriei,,44.379223,26.135235,,,,
9563,S0052,Aparatorii Patriei,,44.379166,26.135144,,,,
9565,S0061,Piata Sudului,,44.392507,26.122785,,,,
9566,S0062,Piata Sudului,,44.392442,26.122608,,,,
9569,S0071,Constantin Brancoveanu,,44.398996,26.10837,,,,
9570,S0072,Constantin Brancoveanu,,44.398908,26.108328,,,,
9572,S0081,Eroii Revolutiei,,44.404159,26.096435,,,,
9573,S0082,Eroii Revolutiei,,44.404132,26.096349,,,,
9587,S0091,Tineretului,,44.415291,26.104578,,,,
9588,S0092,Tineretului,,44.415283,26.104449,,,,
9592,S0101,Piata Romana,,44.445404,26.097744,,,,
9593,S0102,Piata Romana,,44.445381,26.097625,,,,
9578,S0113,Eroilor,,44.435006,26.075803,,,,
9579,S0114,Eroilor,,44.434998,26.075706,,,,
9584,S0121,Politehnica,,44.434783,26.054619,,,,
9585,S0122,Politehnica,,44.435186,26.055526,,,,
9596,S0131,Universitate,,44.436503,26.102083,,,,
9597,S0132,Universitate,,44.436488,26.10196,,,,
9607,S0141,Piata Victoriei,,44.45288,26.086408,,,,
9608,S0142,Piata Victoriei,,44.452868,26.08629,,,,
9609,S0143,Piata Victoriei,,44.451987,26.087041,,,,
9610,S0144,Piata Victoriei,,44.452064,26.087041,,,,
9613,S0151,Aviatorilor,,44.466051,26.08672,,,,
9614,S0152,Aviatorilor,,44.466058,26.08658,,,,
9616,S0161,Aurel Vlaicu,,44.479104,26.100372,,,,
9617,S0162,Aurel Vlaicu,,44.479165,26.100313,,,,
9621,S0172,Pipera,,44.48067,26.116632,,,,
9624,S0181,Lujerului,,44.4345,26.033435,,,,
9625,S0182,Lujerului,,44.434324,26.033542,,,,
9629,S0191,Pantelimon,,44.440536,26.192597,,,,
9630,S0192,Pantelimon,,44.440605,26.192431,,,,
9628,S0201,Gorjului,,44.434217,26.021118,,,,
9641,S0202,Gorjului,,44.434102,26.021247,,,,
9632,S0211,Republica,,44.43424,26.185484,,,,
9633,S0212,Republica,,44.434182,26.18535,,,,
9635,S0221,Costin Georgian,,44.435488,26.169326,,,,
9636,S0222,Costin Georgian,,44.435492,26.169321,,,,
9639,S0231,Titan,,44.425298,26.162964,,,,
9640,S0232,Titan,,44.425287,26.16305,,,,
9645,S0241,Nicolae Grigorescu,,44.413647,26.159788,,,,
9646,S0242,Nicolae Grigorescu,,44.413317,26.160454,,,,
9647,S0243,Nicolae Grigorescu,,44.41344,26.159745,,,,
9864,S0244,Nicolae Grigorescu,,44.413294,26.159729,,,,
9653,S0251,Dristor,,44.41949,26.139972,,,,
9654,S0252,Dristor,,44.419379,26.139908,,,,
9657,S0254,Dristor,,44.420624,26.139581,,,,
9652,S0261,Pacii,,44.433899,26.004032,,,,
9655,S0262,Pacii,,44.433856,26.004167,,,,
9668,S0272,Preciziei,,44.430604,25.990986,,,,
9663,S0281,Mihai Bravu,,44.41116,26.125633,,,,
9662,S0282,Mihai Bravu,,44.411095,26.125719,,,,
9666,S0291,Timpuri Noi,,44.416751,26.113713,,,,
9667,S0292,Timpuri Noi,,44.416751,26.113654,,,,
9674,S0301,1 Decembrie 1918,,44.410681,26.173897,,,,
9675,S0302,1 Decembrie 1918,,44.410509,26.173811,,,,
9673,S0311,Grozavesti,,44.442827,26.059914,,,,
9676,S0312,Grozavesti,,44.442785,26.059822,,,,
9681,S0321,Nicolae Teclu,,44.407328,26.194861,,,,
9682,S0322,Nicolae Teclu,,44.407213,26.194662,,,,
9685,S0331,Anghel Saligny,,44.405442,26.208395,,,,
9686,S0332,Anghel Saligny,,44.405381,26.208492,,,,
9691,S0341,Piata Muncii,,44.431853,26.138808,,,,
9692,S0342,Piata Muncii,,44.431903,26.138856,,,,
9695,S0351,Piata Iancului,,44.441061,26.133326,,,,
9696,S0352,Piata Iancului,,44.441103,26.133342,,,,
9699,S0361,Obor,,44.449399,26.124351,,,,
9700,S0362,Obor,,44.449387,26.124469,,,,
9704,S0371,Stefan cel Mare,,44.452914,26.104068,,,,
9705,S0372,Stefan cel Mare,,44.452979,26.103934,,,,
9707,S0381,Petrache Poenaru,,44.44545,26.046599,,,,
9714,S0382,Petrache Poenaru,,44.4454,26.046513,,,,
9713,S0392,Straulesti,,44.50226,26.025601,,,,
9723,S0401,Laminorului,,44.495178,26.031209,,,,
9722,S0402,Laminorului,,44.495021,26.031155,,,,
9721,S0411,Crangasi,,44.451895,26.047162,,,,
9729,S0412,Crangasi,,44.451983,26.047157,,,,
9727,S0421,Parc Bazilescu,,44.487218,26.037303,,,,
9728,S0422,Parc Bazilescu,,44.486935,26.037431,,,,
9733,S0431,Jiului,,44.482361,26.041101,,,,
9734,S0432,Jiului,,44.48254,26.0408,,,,
9735,S0441,Basarab,,44.450747,26.068411,,,,
9738,S0442,Basarab,,44.450808,26.068454,,,,
9756,S0443,Basarab,,44.450842,26.068497,,,,
9757,S0444,Basarab,,44.4508,26.068443,,,,
9742,S0451,1 Mai,,44.470859,26.050537,,,,
9743,S0452,1 Mai,,44.470805,26.050392,,,,
9747,S0461,Grivita,,44.461173,26.057966,,,,
9748,S0462,Grivita,,44.461093,26.057929,,,,
9751,S0471,Gara de Nord 1,,44.447396,26.075165,,,,
9752,S0472,Gara de Nord 1,,44.447442,26.075197,,,,
9753,S0473,Gara de Nord 2,,44.447557,26.075674,,,,
9754,S0474,Gara de Nord 2,,44.447549,26.07568,,,,
10958,S0510,Raul Doamnei,,44.41444,26.025082,,,,
10959,S0511,Constantin Brancusi,,44.418257,26.020853,,,,
10969,S0512,Valea Ialomitei,,44.420981,26.0132,,,,
10960,S0513,Romancierilor,,44.422594,26.023479,,,,
10961,S0514,Parc Drumul Taberei,,44.422043,26.033356,,,,
10962,S0515,Tudor Vladimirescu,,44.42308,26.042423,,,,
10963,S0516,Favorit,,44.424153,26.047618,,,,
10964,S0517,Orizont,,44.425732,26.056423,,,,
10965,S0518,Academia Militara,,44.429046,26.063729,,,,
10968,S0521,Academia Militara,,44.429112,26.063647,,,,
10970,S0522,Orizont,,44.426212,26.056971,,,,
10971,S0523,Favorit,,44.424463,26.04647,,,,
10972,S0524,Tudor Vladimirescu,,44.423458,26.042155,,,,
10973,S0525,Parc Drumul Taberei,,44.422375,26.03287,,,,
10974,S0526,Romancierilor,,44.423038,26.023419,,,,
10975,S0527,Valea Ialomitei,,44.421264,26.013227,,,,
10976,S0528,Constantin Brancusi,,44.418195,26.020183,,,,
10977,S0529,Raul Doamnei,,44.414766,26.024353,,,,
10994,S0530,Eroilor,,44.435538,26.073985,,,,
10995,S0531,Eroilor,,44.435245,26.07439,,,,
