stop_id,stop_code,stop_name,stop_desc,stop_lat,stop_lon,zone_id,stop_url,location_type,parent_station
3451,10,Vatra Luminoasa,,44.437265,26.13652,,,,
3583,100,Piata Rahova,,44.405699,26.063171,,,,
7590,1000,Faur,,44.426239,26.17895,,,,
7554,1002,Bd. 1 Decembrie 1918,,44.41862,26.176031,,,,
7552,1003,Codrii Neamtului,,44.41742,26.17108,,,,
7553,1004,Bd. Nicolae Grigorescu,,44.415918,26.166249,,,,
7557,1005,Postavarului,,44.417705,26.165225,,,,
7558,1006,Policlinica Titan,,44.420519,26.164628,,,,
7555,1007,Liviu Rebreanu,,44.424868,26.162121,,,,
7556,1008,Constantin Brancusi,,44.429723,26.162106,,,,
7560,1009,Bd. Basarabia,,44.435854,26.159775,,,,
3582,101,Margeanului,,44.403124,26.057071,,,,
7563,1010,Pictor Harlescu,,44.439333,26.158165,,,,
3924,1012,Bd.Tineretului,,44.407999,26.120237,,,,
7650,1013,Soseaua Iancului,,44.443808,26.148526,,,,
7651,1014,Baicului,,44.444435,26.142502,,,,
7647,1016,Palatul Parlamentului,,44.43042,26.086938,,,,
3919,1017,Ziduri Mosi,,44.454695,26.128621,,,,
3922,1018,Suveica,,44.458485,26.131255,,,,
7649,1019,Soseaua Colentina,,44.462918,26.131801,,,,
3581,102,Antiaeriana,,44.400372,26.050126,,,,
9072,1023,Rocin,,44.482384,26.120597,,,,
3904,1029,Doamna Ghica,,44.46066,26.132323,,,,
3580,103,Depoul Alexandria,,44.39901,26.046381,,,,
3908,1030,Teiul Doamnei,,44.456153,26.129329,,,,
7643,1031,Pod Izvor,,44.43293,26.091822,,,,
7618,1034,Baicului,,44.444115,26.143825,,,,
7617,1035,Soseaua Iancului,,44.443202,26.152599,,,,
7620,1036,Bd. Chisinau,,44.443131,26.156115,,,,
7619,1037,Soseaua Pantelimon,,44.441565,26.166221,,,,
7622,1039,Bd. Nicolae Grigorescu,,44.434292,26.160152,,,,
3579,104,Mezes,,44.484806,26.023453,,,,
7626,1041,Facultatea Medicina Veterinara,,44.433614,26.081023,,,,
7627,1042,Policlinica Titan,,44.420529,26.164319,,,,
7628,1043,Postavarului,,44.417165,26.164927,,,,
7629,1044,Codrii Neamtului,,44.41739,26.172154,,,,
7603,1045,Bd. 1 Decembrie 1918,,44.417991,26.176306,,,,
7602,1047,Bd. Basarabia,,44.436386,26.168826,,,,
3578,105,Marmurei,,44.482369,26.02984,,,,
7604,1050,Fizicienilor,,44.414258,26.152241,,,,
7605,1054,Complex Comercial Vitan Barzesti,,44.399645,26.142618,,,,
7488,1056,Soseaua Oltenitei,,44.385402,26.13895,,,,
7489,1057,Cartier Aparatorii Patriei,,44.37969,26.132811,,,,
7484,1058,Emil Racovita,,44.379155,26.126877,,,,
7487,1059,Bd. Alexandru Obregia,,44.376541,26.119054,,,,
3577,106,Crinului,,44.480761,26.033839,,,,
7483,1060,Dorohoi,,44.376094,26.112514,,,,
7481,1061,Izvorul Oltului,,44.377013,26.105914,,,,
7479,1062,Ucea,,44.377594,26.101772,,,,
7472,1066,Resita,,44.377742,26.100018,,,,
7456,1067,Ucea,,44.377421,26.102266,,,,
7459,1068,Izvorul Oltului,,44.376729,26.107062,,,,
7461,1069,Bd. Constantin Brancoveanu,,44.375822,26.113877,,,,
3576,107,Minerva,,44.479085,26.038003,,,,
7450,1071,Cartier Aparatorii Patriei,,44.380441,26.135589,,,,
7455,1072,Soseaua Oltenitei,,44.386789,26.140223,,,,
7453,1073,Spitalul Sf. Ioan,,44.391935,26.142719,,,,
7447,1074,Complex Comercial Vitan Barzesti,,44.401257,26.142615,,,,
7445,1075,Pod Vitan,,44.404579,26.142438,,,,
3575,108,Bd. Bucurestii Noi,,44.476699,26.045036,,,,
7427,1082,Pod Izvor,,44.432992,26.09069,,,,
7426,1083,Piata Natiunile Unite,,44.42934,26.096838,,,,
7425,1084,Piata Chirigiu,,44.416911,26.080668,,,,
7429,1085,Soseaua Progresului,,44.414992,26.07704,,,,
7428,1086,Piata Unirii 1,,44.42739,26.100943,,,,
3574,109,Carpati,,44.472291,26.049104,,,,
9031,1091,Piata Operei,,44.434381,26.0765,,,,
7405,1093,Depoul Alexandria,,44.398313,26.044306,,,,
7412,1099,Calea Ferentari,,44.408591,26.077901,,,,
3434,11,Piata Iancului,,44.44066,26.134073,,,,
3224,110,Clabucet,,44.471078,26.051762,,,,
7187,1100,Soseaua Progresului,,44.415912,26.079248,,,,
7184,1102,Sebastian,,44.420849,26.066535,,,,
7185,1103,Soseaua Progresului,,44.422332,26.070597,,,,
7180,1104,Valea Oltului,,44.411949,26.017128,,,,
10413,1107,Raul Doamnei,,44.413573,26.025609,,,,
3789,1108,Aleea Vlasiei,,44.416111,26.024773,,,,
3790,1109,Liceul Eugen Lovinescu,,44.417769,26.028356,,,,
6472,112,Soseaua Garii Catelu,,44.425273,26.220568,,,,
3819,1125,Liceul Eugen Lovinescu,,44.41746,26.02742,,,,
3825,1126,Raul Doamnei,,44.41637,26.023185,,,,
7208,1127,Ghidigeni,,44.412628,26.022154,,,,
3823,1128,Mircea Vulcanescu,,44.439941,26.073214,,,,
7211,1130,Valea Oltului,,44.412177,26.018447,,,,
7232,1137,Glinka,,44.462972,26.101568,,,,
7231,1138,Ceaikovski,,44.466271,26.102186,,,,
9266,1145,Rocin,,44.482413,26.121847,,,,
3864,1146,Grup Scolar Auto,,44.43545,25.975515,,,,
3221,115,Piata Presei,,44.475807,26.071744,,,,
7230,1150,Podul Ciorogarla,,44.40085,25.933062,,,,
7228,1153,Ciutaci,,44.401026,25.90993,,,,
7245,1156,Soseaua Stefan cel Mare,,44.45456,26.100685,,,,
3915,1158,Piata Gemeni,,44.445301,26.112175,,,,
6470,116,Piata Iancului,,44.441074,26.132251,,,,
7246,1160,Panselelor,,44.398604,25.919045,,,,
3940,1162,Bucur Obor,,44.450794,26.12581,,,,
3942,1163,Doamna Ghica,,44.463057,26.133811,,,,
3943,1164,Raul Colentina,,44.467169,26.139854,,,,
3895,1166,Sportului,,44.470745,26.15056,,,,
7238,1168,Nicolae Canea,,44.475409,26.1586,,,,
7243,1170,Primaria Domnesti,,44.398767,25.915044,,,,
7242,1172,Nicolae Canea,,44.475397,26.15813,,,,
7244,1173,Cornisor,,44.473196,26.15385,,,,
3912,1174,Sportului,,44.470909,26.149363,,,,
3909,1175,Cartier Colentina,,44.468524,26.142236,,,,
3910,1176,Raul Colentina,,44.466204,26.13737,,,,
3684,1177,Bucur Obor,,44.450873,26.125494,,,,
3685,1178,Fainari,,44.446949,26.122424,,,,
7069,1179,Gara de Nord,,44.447165,26.075363,,,,
6481,118,Spitalul Sf. Ioan,,44.391213,26.142508,,,,
7058,1182,Primaria Sector 1,,44.45312,26.073921,,,,
7057,1183,Piata Ion Mihalache,,44.458846,26.077008,,,,
7056,1184,Bd. Maresal Averescu,,44.462668,26.072128,,,,
7055,1185,Piata Domenii,,44.46539,26.067518,,,,
7054,1187,Scoala de 4 Ani,,44.402899,25.90307,,,,
7052,1189,Marin Dracea,,44.482995,26.108211,,,,
7045,1190,C.F.R. Constanta,,44.48601,26.113442,,,,
7036,1191,C.F.R. Constanta,,44.486722,26.115677,,,,
7033,1192,Pipera,,44.48394,26.10947,,,,
7040,1193,Marin Dracea,,44.483228,26.108199,,,,
7030,1197,Piata Charles de Gaulle,,44.465392,26.087846,,,,
7028,1198,Arcul de Triumf,,44.46759,26.078416,,,,
7080,1199,Bd. Maresal Averescu,,44.461466,26.073378,,,,
3436,12,Bd. Ferdinand,,44.444152,26.128577,,,,
3277,120,Carpati,,44.472556,26.048958,,,,
6883,1200,Piata Ion Mihalache,,44.458977,26.076573,,,,
6885,1201,Primaria Sector 1,,44.453598,26.074385,,,,
6880,1204,Primaria Domnesti,,44.398824,25.914794,,,,
6882,1205,Soseaua Panduri,,44.423718,26.074274,,,,
6881,1206,Piata Arsenalului,,44.425641,26.078268,,,,
6886,1207,Piata Unirii 2,,44.425826,26.102838,,,,
3246,121,Soseaua Chitilei,,44.476712,26.044584,,,,
6844,1211,Romaero,,44.493075,26.085639,,,,
6845,1212,Aeroportul Baneasa,,44.495509,26.077524,,,,
6848,1219,Bd. Gloriei,,44.483793,26.040284,,,,
3249,122,Minerva,,44.479251,26.037695,,,,
6842,1221,Jimbolia,,44.492486,26.033526,,,,
6840,1223,Intrare Sat Catelu,,44.405239,26.21155,,,,
6841,1224,Sebastian,,44.420506,26.064947,,,,
3630,1225,Maria Rosetti,,44.442471,26.109823,,,,
3631,1226,Maria Rosetti,,44.44211,26.109643,,,,
6838,1227,Soseaua Panduri,,44.423052,26.071924,,,,
6839,1228,Podul Ciorogarla,,44.40074,25.933411,,,,
3250,123,Crinului,,44.480923,26.033519,,,,
6837,1230,Jimbolia,,44.491296,26.034194,,,,
6834,1233,Izbiceni,,44.487567,26.047241,,,,
6835,1238,Brodina,,44.497542,26.073689,,,,
6836,1239,Aeroportul Baneasa,,44.4953,26.077683,,,,
3253,124,Subcetate,,44.482517,26.029567,,,,
6829,1243,Calea 13 Septembrie,,44.417648,26.058776,,,,
6831,1247,Margeanului,,44.413892,26.061394,,,,
6830,1249,Aleea Danubiana,,44.364424,26.193952,,,,
3241,125,Mezes,,44.485394,26.023005,,,,
6827,1250,Sere Militari,,44.410203,26.003121,,,,
6826,1253,Carol Davila,,44.432831,26.070366,,,,
6823,1254,Piata Unirii,,44.425689,26.105124,,,,
6825,1256,Soseaua Progresului,,44.42192,26.068907,,,,
6807,1260,Primaria Popesti-Leordeni,,44.380182,26.169098,,,,
6805,1261,Policolor 2,,44.43305,26.207258,,,,
6804,1266,Izvorul Rece,,44.386871,26.1098,,,,
6803,1267,Izvorul Crisului,,44.384223,26.109807,,,,
6802,1268,Lamotesti,,44.380703,26.109878,,,,
6791,1270,Anghel Alexandru,,44.378298,26.091488,,,,
6792,1271,Raducanu Cristea,,44.372907,26.090065,,,,
6788,1276,Raducanu Cristea,,44.373912,26.090559,,,,
6787,1277,Luica,,44.377745,26.091583,,,,
6790,1278,Covasna,,44.377826,26.11026,,,,
6789,1279,Lamotesti,,44.381434,26.110165,,,,
3245,128,Cimitirul Ghencea,,44.416519,26.052975,,,,
6775,1280,Izvorul Crisului,,44.385098,26.110066,,,,
6776,1281,Nitu Vasile,,44.386903,26.110023,,,,
3803,1282,Rasaritului,,44.434225,26.023415,,,,
6777,1283,Calea Rahovei,,44.413601,26.074785,,,,
3804,1285,Rasaritului,,44.434042,26.025323,,,,
3563,1286,Orsova,,44.440145,26.035383,,,,
6774,1287,Pecineaga,,44.4032,26.07281,,,,
6773,1288,Amurgului,,44.400383,26.070943,,,,
6772,1289,Complex Comercial,,44.397087,26.069988,,,,
3261,129,Drumul Sarii,,44.418676,26.059914,,,,
6767,1290,Bacau,,44.392711,26.069906,,,,
6768,1291,Complex Comercial,,44.397179,26.069094,,,,
6765,1292,Amurgului,,44.401005,26.071506,,,,
6766,1293,Pecineaga,,44.403673,26.073206,,,,
6769,1295,Cimitirul Militari,,44.441769,26.02269,,,,
3529,1298,Orsova,,44.440267,26.035344,,,,
3431,13,Soseaua Pantelimon,,44.445988,26.134246,,,,
3298,130,Sebastian,,44.420562,26.065538,,,,
3188,1308,Cutitul de Argint,,44.408906,26.097077,,,,
3296,131,Soseaua Progresului,,44.421834,26.070604,,,,
3100,1312,Adesgo,,44.41129,26.10034,,,,
3120,1321,Scoala Generala 81,,44.419272,26.115107,,,,
3126,1322,Bd. Octavian Goga,,44.423491,26.118492,,,,
3114,1325,Scoala Generala 81,,44.419399,26.115143,,,,
6438,1326,Platforma Metalurgiei,,44.376228,26.120524,,,,
6442,1330,I.M.G.B. Poarta 1,,44.368111,26.143609,,,,
6412,1331,I. M. G. B. Poarta 2,,44.361848,26.148389,,,,
6413,1332,I. M. G. B. Poarta 2,,44.361325,26.148913,,,,
6414,1333,I. M. G. B. Poarta 1,,44.367616,26.144134,,,,
6410,1341,Bd. Preciziei,,44.432285,26.005001,,,,
6409,1342,C.F.R. Cotroceni,,44.4293,26.002374,,,,
3619,1343,Sulitei,,44.401122,26.083688,,,,
6408,1344,Aurel Vlaicu,,44.479223,26.101733,,,,
3618,1345,Sulitei,,44.401225,26.08352,,,,
6407,1346,Brasov,,44.414633,26.035181,,,,
6406,1348,Soseaua Fabrica de Glucoza,,44.474966,26.10409,,,,
3762,135,Invingatorilor,,44.42943,26.130861,,,,
6405,1352,Valea Ialomitei,,44.421524,26.012797,,,,
6418,1353,Sala Lucian Grigorescu,,44.464378,26.095723,,,,
6419,1354,Mircea Eliade,,44.46552,26.10192,,,,
6420,1355,Calea Floreasca,,44.46594,26.10136,,,,
3649,1357,Adesgo,,44.411398,26.100405,,,,
6501,136,Cornisor,,44.473502,26.154807,,,,
3640,1362,Cutitul de Argint,,44.408803,26.096898,,,,
8509,1369,Ferma Zurbaua,,44.48272,25.923596,,,,
8508,1371,Ferma Zurbaua,,44.482448,25.923987,,,,
6396,1376,Berzei,,44.439903,26.080602,,,,
6397,1377,Spitalul Universitar,,44.434891,26.073373,,,,
6395,1385,Soseaua de Centura,,44.438379,25.966161,,,,
6390,1388,Secuilor,,44.391667,26.109779,,,,
6389,1389,Secuilor,,44.392368,26.109925,,,,
3791,1394,Piata Leul,,44.434667,26.05811,,,,
6388,1395,Laromet,,44.495027,26.030455,,,,
3316,140,Piata Ion Mihalache,,44.457795,26.078243,,,,
6061,1400,Pod Eroilor,,44.435034,26.07379,,,,
6058,1401,Berzei,,44.439563,26.08043,,,,
6059,1402,Cismigiu,,44.439817,26.089976,,,,
6060,1403,Bd. Nicolae Balcescu,,44.439081,26.099924,,,,
6054,1405,Penes Curcanul,,44.412214,26.12837,,,,
3303,1409,Gramont,,44.421354,26.095756,,,,
3320,141,Bd. Maresal Averescu,,44.462042,26.072834,,,,
5931,1416,Perla,,44.453671,26.098449,,,,
5930,1417,Pasaj Colentina,,44.478167,26.16396,,,,
5925,1419,Piata Charles de Gaulle,,44.465314,26.087532,,,,
5947,1420,Piata Dorobanti,,44.459762,26.093559,,,,
5949,1421,Soseaua Stefan cel Mare,,44.453835,26.098175,,,,
5948,1422,Institutul Meteorologic,,44.501844,26.210148,,,,
5953,1423,Soseaua Afumati,,44.514863,26.235632,,,,
5951,1424,Doraly,,44.505868,26.217995,,,,
5981,1438,Doraly,,44.504881,26.215787,,,,
5979,1439,Soseaua Afumati,,44.515004,26.235657,,,,
5988,1440,Institutul Meteorologic,,44.501473,26.209068,,,,
5994,1441,Piata Presei,,44.478021,26.073311,,,,
5993,1448,Spatarul Preda,,44.413336,26.086615,,,,
5996,1449,Inclinata,,44.410463,26.089385,,,,
6004,1450,Stefan Hepites,,44.40739,26.09237,,,,
3211,1451,Soseaua Viilor,,44.411787,26.088934,,,,
3702,1460,Bd. Alexandru Ioan Cuza,,44.449656,26.078367,,,,
7469,1467,Oasului,,44.491588,26.027813,,,,
7400,1474,Sebastian,,44.419768,26.066471,,,,
7403,1476,Piata Chirigiu,,44.417441,26.082473,,,,
7421,1484,Aurel Vlaicu,,44.479589,26.099512,,,,
7438,1491,Piata Domenii,,44.465394,26.067121,,,,
7443,1493,Bufet,,44.320348,26.180227,,,,
7441,1494,Boadei,,44.317139,26.183386,,,,
7442,1495,Cofetarie,,44.313942,26.186854,,,,
3427,15,Teiul Doamnei,,44.456613,26.129837,,,,
3103,150,Piata Ion Mihalache,,44.458251,26.077627,,,,
3357,1501,Piata Hurmuzachi,,44.431316,26.139219,,,,
7321,1508,Calea Floreasca,,44.465855,26.10298,,,,
3104,151,Dr. Felix,,44.452142,26.08037,,,,
7307,1516,Stadion Olimpia,,44.411241,26.13589,,,,
7306,1519,C.E.T. Sud Vitan,,44.405992,26.148287,,,,
7285,1522,Stadion Olimpia,,44.411305,26.135963,,,,
7288,1527,Primaria Berceni,,44.3094,26.189069,,,,
7291,1528,Cofetarie,,44.313627,26.187174,,,,
7290,1529,Garibaldi,,44.465446,26.10582,,,,
7396,1530,Boadei,,44.316286,26.184358,,,,
7395,1531,Complex Comercial Apusului,,44.437949,26.014346,,,,
7397,1533,Bufet,,44.319753,26.180795,,,,
7398,1534,Nicolae Golescu,,44.44327,26.097305,,,,
7378,1540,Piata Crangasi,,44.452265,26.047441,,,,
7379,1541,Pasaj Grant,,44.45138,26.059074,,,,
7380,1542,Spitalul Dr. Panait Sarbu,,44.449487,26.061745,,,,
7382,1544,Gara de Nord,,44.445495,26.074289,,,,
10089,1545,Manastirea Cernica,,44.439384,26.260403,,,,
7375,1552,Gara de Nord,,44.44652,26.072955,,,,
7374,1554,Spitalul Dr. Panait Sarbu,,44.450333,26.06081,,,,
7372,1555,Pasaj Grant,,44.453765,26.057655,,,,
7373,1556,Piata Crangasi,,44.453075,26.04824,,,,
6426,156,Scoala Iancului,,44.439519,26.123758,,,,
7353,1560,Zetarilor,,44.387204,26.078366,,,,
7352,1561,Valtoarei,,44.389455,26.080349,,,,
7348,1562,Vadul Nou,,44.392435,26.08242,,,,
7349,1563,Piata Ferentarilor,,44.398748,26.082511,,,,
7350,1564,Armistitiului,,44.400329,26.077249,,,,
7351,1565,Soseaua Salaj,,44.40088,26.070921,,,,
7347,1566,Cap. Preda,,44.403555,26.066875,,,,
10110,1567,Manastirea Cernica,,44.439593,26.260033,,,,
6425,157,Piata Valea Ialomitei,,44.420485,26.020158,,,,
3861,1571,Bd. Iuliu Maniu,,44.433352,26.054247,,,,
3858,1572,Bd. Timisoara,,44.429975,26.054335,,,,
3666,1573,Mircea Vulcanescu,,44.440017,26.073424,,,,
7047,1576,Soseaua Fabrica de Glucoza,,44.474883,26.104296,,,,
7043,1577,Muntii Carpati,,44.40335,26.066171,,,,
7042,1578,Soseaua Salaj,,44.400259,26.071606,,,,
7046,1579,Armistitiului,,44.400298,26.077669,,,,
7048,1580,Piata Ferentarilor,,44.397912,26.083275,,,,
7049,1581,Vadul Nou,,44.393376,26.082945,,,,
7050,1582,Valtoarei,,44.390288,26.080758,,,,
7051,1583,Zetarilor,,44.386285,26.077636,,,,
8499,1586,Pantelimon,,44.439964,26.18451,,,,
7061,1588,Piata Ferentarilor,,44.398249,26.085977,,,,
7068,1590,Suhaia,,44.401714,26.091293,,,,
7066,1591,Piata Eroii Revolutiei,,44.404029,26.096041,,,,
7067,1592,I.M.G.B. Poarta 3,,44.364045,26.135151,,,,
7062,1593,Vulcan Berceni,,44.359548,26.13903,,,,
7064,1594,I.M.G.B. Poarta 3,,44.363839,26.135361,,,,
7072,1595,Suhaia,,44.401303,26.08999,,,,
3429,16,Doamna Ghica,,44.461631,26.132958,,,,
3142,160,Sebastian,,44.420362,26.064833,,,,
8594,1605,Branesti-Gara,,44.460221,26.334173,,,,
3127,161,Drumul Sarii,,44.41849,26.059257,,,,
8595,1613,Islaz,,44.45767,26.385785,,,,
12058,1617,Stirbei Voda,,44.437336,26.076838,,,,
3130,162,Cimitirul Ghencea,,44.41638,26.052424,,,,
6910,1622,Lunca Barzesti,,44.390813,26.127979,,,,
6912,1623,Stadion,,44.388566,26.133169,,,,
6911,1624,Soseaua Vitan Barzesti,,44.385456,26.140608,,,,
6897,1626,Institutul Sf. Maria,,44.381717,26.150882,,,,
6900,1627,Paraul Rece,,44.379951,26.159969,,,,
6899,1628,Cazanesti,,44.379937,26.164146,,,,
6904,1629,Primaria Popesti-Leordeni,,44.379774,26.168426,,,,
6954,1630,Viilor,,44.377078,26.173434,,,,
6953,1631,Viscofil,,44.372596,26.179551,,,,
6951,1632,Taberei,,44.369115,26.184286,,,,
6950,1633,Danubiana,,44.367142,26.19584,,,,
6949,1634,Soseaua Oltenitei,,44.364267,26.193693,,,,
6948,1635,Taberei,,44.368852,26.184762,,,,
6947,1636,Viscofil,,44.372211,26.180246,,,,
6946,1637,Viilor,,44.376777,26.174024,,,,
6945,1638,Primaria Popesti-Leordeni,,44.379607,26.169905,,,,
6944,1639,Cazanesti,,44.380033,26.16443,,,,
6933,1640,Paraul Rece,,44.380126,26.159387,,,,
6935,1641,Institutul Sf. Maria,,44.382069,26.150189,,,,
6929,1643,Soseaua Vitan Barzesti,,44.386606,26.138388,,,,
8610,1644,Stadion,,44.389354,26.131877,,,,
6931,1645,Lunca Barzesti,,44.39166,26.126475,,,,
6926,1648,Soseaua Garii Catelu,,44.441227,26.193025,,,,
6990,1656,Soseaua Garii Catelu,,44.44123,26.191388,,,,
6993,1659,Aeroport Baneasa,,44.496371,26.079808,,,,
3118,166,Roma,,44.452753,26.094487,,,,
6983,1660,Drumul Matasii,,44.506932,26.082231,,,,
6967,1661,Institutul Meteorologic,,44.512786,26.080994,,,,
6968,1663,Padurea Baneasa,,44.516912,26.086695,,,,
6969,1664,Restaurant Baneasa,,44.516319,26.092378,,,,
6970,1665,Gradina Zoologica,,44.515393,26.103992,,,,
6972,1667,Jolie Ville Baneasa,,44.515038,26.114926,,,,
6973,1668,Gradina Zoologica,,44.515389,26.103334,,,,
6975,1669,Restaurant Baneasa,,44.516403,26.091977,,,,
3125,167,Calea Dorobantilor,,44.452987,26.098187,,,,
6965,1670,Padurea Baneasa,,44.51698,26.086353,,,,
7025,1672,Institutul Meteorologic,,44.51319,26.080347,,,,
7026,1673,Drumul Matasii,,44.5082,26.081977,,,,
7022,1674,Aeroport Baneasa,,44.496006,26.078866,,,,
7021,1677,Aleea Privighetorilor,,44.518975,26.077593,,,,
7019,1678,Pasaj C.F.R. Otopeni,,44.529802,26.069912,,,,
7020,1679,Amco,,44.541028,26.068776,,,,
7016,1680,Primaria Otopeni,,44.55002,26.069081,,,,
7015,1681,Icsitmua,,44.559979,26.069492,,,,
7004,1683,DN 1 Aeroportul Henri Coanda,,44.569057,26.069955,,,,
7006,1684,Filan,,44.573643,26.070303,,,,
7007,1685,Primaria Clinceni,,44.377585,25.942528,,,,
7009,1686,Geriatrie Otopeni,,44.57994,26.070376,,,,
8613,1687,C.F.R. Balotesti,,44.584431,26.070428,,,,
7002,1689,Geriatrie Otopeni,,44.579688,26.070216,,,,
3115,169,Vasile Lascar,,44.452874,26.111282,,,,
6997,1690,Filan,,44.573989,26.069893,,,,
6995,1691,DN 1 Aeroportul Henri Coanda,,44.568558,26.069698,,,,
7000,1692,Icsitmua,,44.559666,26.069274,,,,
6999,1693,Primaria Otopeni,,44.550708,26.068851,,,,
6756,1694,Amco,,44.541163,26.068559,,,,
6754,1695,Pasaj C.F.R. Otopeni,,44.529353,26.069794,,,,
6757,1697,Aleea Privighetorilor,,44.517309,26.078729,,,,
3424,17,Raul Colentina,,44.466944,26.139104,,,,
3161,170,Dr. Grozovici,,44.4527,26.114718,,,,
3164,171,Lizeanu,,44.452114,26.119321,,,,
6451,1712,Ceaikovski,,44.463385,26.108041,,,,
3137,1714,Bd. Pache Protopopescu,,44.43926,26.120482,,,,
3171,172,Reinvierii,,44.455047,26.121203,,,,
6433,1720,G-ral Praporgescu,,44.451066,26.00486,,,,
6432,1723,Sat Dudu,,44.457795,25.986978,,,,
6430,1724,Cimitirul Chiajna,,44.462351,25.982249,,,,
6431,1725,Magazin Alimentar,,44.459612,25.972699,,,,
6428,1729,Magazin Alimentar,,44.459617,25.972892,,,,
3174,173,Ziduri Mosi,,44.454235,26.128153,,,,
6663,1730,Biserica Chiajna,,44.461239,25.977484,,,,
6665,1731,Cimitirul Chiajna,,44.462267,25.982342,,,,
6664,1732,Sat Dudu,,44.457654,25.986935,,,,
6669,1735,G-ral Praporgescu,,44.45095,26.006114,,,,
6668,1736,G-ral Eremia Grigorescu,,44.450283,26.008587,,,,
6667,1737,Alexandru Ioan Cuza,,44.448716,26.013426,,,,
6666,1738,Canal Arges,,44.445881,26.017077,,,,
6649,1740,Opera Nationala,,44.434943,26.078003,,,,
6650,1743,Republica,,44.434059,26.185264,,,,
6652,1744,Grup Industrial Titan,,44.43528,26.178096,,,,
6651,1745,Bd. 1 Decembrie 1918,,44.436532,26.172271,,,,
12175,1746,Soseaua Morarilor,,44.43709,26.16982,,,,
6654,1746,Soseaua Morarilor,,44.437171,26.169199,,,,
6653,1747,Soseaua Pantelimon,,44.441587,26.16638,,,,
6656,1748,Intrarea Fundeni,,44.44956,26.165813,,,,
6627,1750,Institutul Oncologic,,44.462982,26.155431,,,,
6625,1751,Spitalul Fundeni,,44.463907,26.152286,,,,
6622,1752,Cartier Colentina,,44.469783,26.144677,,,,
6620,1753,Oituz,,44.472781,26.148652,,,,
6617,1756,Cartier Colentina,,44.46844,26.143857,,,,
6640,1757,Itcani,,44.46479,26.150284,,,,
6638,1758,Spitalul Fundeni,,44.463321,26.15393,,,,
6636,1759,Institutul Oncologic,,44.462663,26.156179,,,,
3158,176,Maica Domnului,,44.455237,26.121623,,,,
6601,1761,Intrarea Fundeni,,44.44863,26.165981,,,,
6604,1762,Bd. 1 Decembrie 1918,,44.436029,26.173857,,,,
6603,1763,Grup Industrial Titan,,44.434942,26.179211,,,,
6600,1764,Faur,,44.434191,26.183805,,,,
3157,178,Dr. Grozovici,,44.452613,26.11594,,,,
7786,1784,Cocorilor,,44.48573,26.178691,,,,
7788,1785,Dispensar,,44.490379,26.187769,,,,
3156,179,Vasile Lascar,,44.452891,26.112019,,,,
7810,1792,Dispensar,,44.489933,26.186568,,,,
7812,1794,Cocorilor,,44.486016,26.178927,,,,
7813,1795,Niro,,44.48403,26.175033,,,,
6560,1797,Laromet,,44.495173,26.031464,,,,
6561,1798,Cimitirul Straulesti,,44.500824,26.027051,,,,
3425,18,Cartier Colentina,,44.468678,26.142902,,,,
6467,180,Soseaua Mihai Bravu 33,,44.445988,26.126987,,,,
3773,1800,Posta,,44.416863,26.020497,,,,
6041,1805,Primaria Mogosoaia,,44.531456,25.99775,,,,
3772,1808,Calea 13 Septembrie,,44.417088,26.057923,,,,
3204,181,Calea Dorobantilor,,44.453018,26.099267,,,,
3143,1811,Fizicienilor,,44.414821,26.153596,,,,
5966,1812,Bucuresti Mall,,44.420455,26.125301,,,,
5967,1813,Bucuresti Mall,,44.420105,26.125811,,,,
3150,1814,Voluntarilor,,44.41645,26.149614,,,,
5970,1815,Primaria Mogosoaia,,44.531735,25.997338,,,,
3153,1817,Voluntarilor,,44.416456,26.149445,,,,
3207,182,Roma,,44.452754,26.094068,,,,
3109,1820,Ilioara,,44.413695,26.15714,,,,
3105,1821,Ilioara,,44.413509,26.158475,,,,
3107,1822,Fizicienilor,,44.414556,26.154111,,,,
5945,1824,Cimitirul Straulesti,,44.500157,26.027286,,,,
5942,1825,Laromet,,44.494995,26.031278,,,,
5946,1828,Mezes,,44.485593,26.022769,,,,
3209,183,Pasaj Victoria,,44.452552,26.091434,,,,
5997,1830,Sere Militari,,44.41014,26.002042,,,,
5998,1831,Radului,,44.403352,25.945268,,,,
6005,1834,Scoala Gheorghe Corneliu,,44.401658,25.907356,,,,
11029,1837,Piata Danny Huwe,,44.429699,26.060771,,,,
6002,1838,Cartier 16 Februarie,,44.470054,26.022471,,,,
6003,1839,Poiana Lacului,,44.467278,26.015718,,,,
5985,1840,Sculptorilor,,44.470726,26.006936,,,,
5983,1841,Scoala,,44.470163,26.002305,,,,
5984,1842,Giulesti Sarbi,,44.471303,26.000913,,,,
5982,1844,Sculptorilor,,44.470664,26.007568,,,,
5991,1845,Intrarea Caramidariei,,44.467349,26.010263,,,,
5992,1846,Cartier 16 Februarie,,44.470357,26.021476,,,,
7681,185,Piata Sf. Gheorghe,,44.432537,26.103862,,,,
6137,1854,Libertatii,,44.512096,25.975016,,,,
6134,1856,Gara Chitila,,44.503536,25.989138,,,,
6133,1858,Utrec,,44.500143,25.99427,,,,
6132,1859,Pasaj Chitila,,44.496078,26.000522,,,,
3210,186,Bd. Carol I,,44.436776,26.110379,,,,
6112,1860,Cpt. Radu Dragos,,44.492591,26.00592,,,,
6114,1861,Sold. Adrian Patru,,44.489747,26.011302,,,,
6113,1862,Maica Teofana,,44.48733,26.017363,,,,
8600,1868,Moara Vlasiei,,44.645102,26.231267,,,,
3195,187,Batistei,,44.439885,26.108757,,,,
6196,1870,Maica Teofana,,44.487652,26.01684,,,,
6193,1871,Sold. Adrian Patru,,44.490764,26.009238,,,,
6192,1872,Cpt. Radu Dragos,,44.493219,26.005149,,,,
6191,1873,Pasaj Chitila,,44.496378,26.000308,,,,
6190,1874,Utrec,,44.50089,25.993402,,,,
6187,1876,Gara Chitila,,44.503322,25.989673,,,,
6186,1878,Libertatii,,44.512547,25.974518,,,,
3193,188,Piata Gemeni,,44.44462,26.111134,,,,
6165,1881,Isovolta,,44.415064,26.217807,,,,
6164,1882,C.F.R. Catelu,,44.412475,26.218078,,,,
6167,1883,Sat Catelu,,44.406763,26.216506,,,,
6159,1886,Soseaua Mihai Bravu,,44.415932,26.131314,,,,
6163,1887,Pod Cotroceni,,44.43783,26.070508,,,,
6156,1889,Sandu Aldea,,44.467729,26.06177,,,,
6082,1892,Zizin,,44.418095,26.128351,,,,
6085,1893,Soseaua Dudesti-Pantelimon,,44.440177,26.192752,,,,
6079,1894,Irisului,,44.437675,26.197805,,,,
6081,1895,Darabani,,44.436143,26.200948,,,,
6087,1896,Pupitrului,,44.434625,26.204062,,,,
6089,1897,Muntii Mehedinti,,44.43055,26.212208,,,,
6086,1898,Piata Catelu,,44.428174,26.217036,,,,
7570,1900,Piata Catelu,,44.428371,26.216893,,,,
7572,1901,Muntii Mehedinti,,44.430885,26.211781,,,,
7574,1902,Policolor 2,,44.433274,26.20702,,,,
7576,1903,Pupitrului,,44.434872,26.203837,,,,
7578,1904,Darabani,,44.436372,26.200722,,,,
7580,1905,Irisului,,44.437898,26.197605,,,,
7581,1906,Soseaua Dudesti-Pantelimon,,44.44065,26.19203,,,,
7584,1907,Piata Vitan,,44.423085,26.1237,,,,
3806,1909,Calea Mosilor,,44.438888,26.115292,,,,
7592,1910,Calea Grivitei,,44.44382,26.089472,,,,
7594,1913,Lucian Blaga,,44.425095,26.122973,,,,
7593,1916,Sat Catelu,,44.406356,26.2156,,,,
9356,1925,Frasari,,44.506979,26.137566,,,,
8792,1926,Moara Vlasiei,,44.645145,26.231136,,,,
6609,193,Gara Baneasa,,44.484066,26.076508,,,,
9346,1932,Frasari,,44.507832,26.137802,,,,
7598,1936,C.F.R. Progresul,,44.369263,26.088804,,,,
7601,1937,Nicolae Balcescu,,44.358294,26.086246,,,,
7599,1939,C.F.R. Centura,,44.340914,26.081204,,,,
3372,194,Bd. Uverturii,,44.436668,26.035133,,,,
7623,1940,Scoala Generala Nr. 1,,44.332754,26.078408,,,,
7625,1942,Garii,,44.326325,26.084739,,,,
7624,1943,Scoala Generala Nr. 2,,44.329119,26.087712,,,,
7612,1944,Putul Lui Gavril,,44.333324,26.093078,,,,
7611,1945,Soseaua de Centura,,44.337387,26.098021,,,,
7614,1946,Bumbacaria Jilava,,44.342617,26.104663,,,,
7613,1947,Bumbacaria Jilava,,44.342833,26.104668,,,,
7616,1948,Soseaua de Centura,,44.336935,26.097406,,,,
7615,1949,Putul Lui Gavril,,44.333223,26.092879,,,,
7642,1950,Scoala Generala Nr. 2,,44.328807,26.087297,,,,
7641,1951,Garii,,44.326412,26.084161,,,,
7639,1953,Scoala Generala Nr. 1,,44.333719,26.078908,,,,
7638,1954,C.F.R. Centura,,44.340384,26.081149,,,,
7636,1956,Nicolae Balcescu,,44.358931,26.086509,,,,
7635,1957,C.F.R. Progresul,,44.369686,26.089441,,,,
7646,1962,Petre Ispirescu,,44.418033,26.057555,,,,
7645,1963,Cimitirul Ghencea,,44.416287,26.051921,,,,
7648,1965,Primaria Jilava,,44.330587,26.077664,,,,
6607,197,Spitalul CFR 2,,44.474782,26.069851,,,,
7415,1973,Cimitirul Ghencea,,44.41663,26.05359,,,,
7416,1975,Cimitirul Eroilor Revolutiei,,44.406788,26.095419,,,,
7417,1976,Sura Mare,,44.401773,26.097465,,,,
7418,1977,Muzeul Bacovia,,44.398028,26.09604,,,,
7419,1978,Piata Progresul,,44.392495,26.093541,,,,
7420,1979,Toporasi,,44.388873,26.091993,,,,
6613,198,G-ral Alexandru Cernat,,44.450637,26.076634,,,,
7432,1980,Drumul Gazarului,,44.385884,26.092101,,,,
7433,1981,Cimitirul Evreiesc,,44.382248,26.092191,,,,
7430,1982,Cimitirul Evreiesc,,44.382689,26.092423,,,,
7431,1983,Drumul Gazarului,,44.386537,26.092253,,,,
7436,1984,Toporasi,,44.390656,26.09293,,,,
7437,1985,Piata Progresul,,44.393713,26.09432,,,,
7434,1986,Muzeul Bacovia,,44.397996,26.096306,,,,
7435,1987,Primaria Jilava,,44.330828,26.077884,,,,
7439,1988,Piata Vitan,,44.423421,26.12295,,,,
7440,1989,Gara Basarab,,44.448864,26.069199,,,,
3374,199,Alexandru cel Bun,,44.459025,26.119984,,,,
7457,1991,Gara Basarab,,44.449257,26.068923,,,,
7458,1992,Zizin,,44.417383,26.128954,,,,
7462,1994,Piata 21 Decembrie 1989,,44.43646,26.101799,,,,
3691,1997,Stirbei Voda,,44.436416,26.07441,,,,
7465,1999,Orsova,,44.440535,26.035525,,,,
5963,2,Lucian Blaga,,44.425999,26.122431,,,,
3439,20,Cornisor,,44.473009,26.15374,,,,
7248,2009,Bd. Dinicu Golescu,,44.442691,26.079551,,,,
7254,201,Cartier Tudor Vladimirescu,,44.41515,26.042527,,,,
3667,2010,Bd. Marasesti,,44.420251,26.103899,,,,
7250,2011,Pod Ciurel,,44.44604,26.038271,,,,
7249,2012,Orsova,,44.439682,26.035225,,,,
3670,2013,Palatul National al Copiilor,,44.409153,26.112966,,,,
3668,2018,Soseaua Oltenitei,,44.394955,26.120994,,,,
3669,2019,Parcul Tineretului,,44.409689,26.112226,,,,
7252,202,Piata Lahovari,,44.445516,26.099708,,,,
3678,2020,Bd. Marasesti,,44.420058,26.104224,,,,
7256,2021,Universitate,,44.434372,26.103135,,,,
7257,2022,Piata Sf. Gheorghe,,44.432703,26.103636,,,,
3900,2033,Valea Argesului,,44.416005,26.016416,,,,
3944,2039,Favorit,,44.423254,26.047179,,,,
3113,204,Alexandru cel Bun,,44.459131,26.119904,,,,
3913,2041,Drumetul,,44.418495,26.041466,,,,
3917,2043,Valea Argesului,,44.415712,26.015677,,,,
3875,2046,Drumetul,,44.418576,26.04252,,,,
3874,2047,Sibiu,,44.420207,26.048147,,,,
7253,205,Gara de Nord,,44.447046,26.075748,,,,
7336,2054,Primaria Berceni,,44.309297,26.189147,,,,
3857,2055,Drumul Taberei 98,,44.41684,26.021562,,,,
7338,2056,Bd. Abatorului,,44.410213,26.116111,,,,
8678,2057,Manastirea Samurcasesti,,44.43661,25.876583,,,,
8687,2058,Manastirea Samurcasesti,,44.439008,25.875965,,,,
7741,2061,C.F.R. Balotesti,,44.587082,26.070766,,,,
3122,207,Batistei,,44.440464,26.108669,,,,
7313,2070,Bd. Apicultorilor,,44.502193,26.05921,,,,
3820,2071,Amazoanei,,44.425875,26.136077,,,,
7316,2073,Bd. Apicultorilor,,44.501988,26.059935,,,,
7317,2077,Piata Romana,,44.445586,26.097548,,,,
3124,208,Bd. Carol I,,44.437172,26.110039,,,,
7328,2085,Teiului,,44.395648,26.037364,,,,
7268,2090,Teiului,,44.39568,26.037812,,,,
7271,2091,Soseaua Magurele,,44.398276,26.048667,,,,
7269,2092,Venus,,44.393128,26.047984,,,,
7281,2093,Soseaua Vartejului,,44.389219,26.047483,,,,
7280,2094,Curtea de Arges,,44.381508,26.046391,,,,
7283,2095,I.A.I. Magurele,,44.376016,26.046478,,,,
7282,2096,Pasaj C.F.R Magurele,,44.361767,26.038104,,,,
7279,2097,Atomistilor 94,,44.35389,26.03329,,,,
7278,2098,Facultatea de Fizica,,44.351012,26.032367,,,,
3438,21,Nicolae Canea,,44.475511,26.158623,,,,
5995,2100,Ferma Odai,,44.527346,26.04319,,,,
3735,2101,Calea Plevnei,,44.440103,26.072539,,,,
6013,2102,Magurele Facultatea de Fizica,,44.35225,26.032445,,,,
6011,2103,Atomistilor 45,,44.354797,26.033935,,,,
6012,2104,Pasaj C.F.R Magurele,,44.362134,26.038414,,,,
6017,2105,I.A.I. Magurele,,44.37594,26.0465,,,,
6018,2106,Curtea de Arges,,44.381864,26.046552,,,,
6015,2107,Soseaua Vartejului,,44.38823,26.047396,,,,
6016,2108,Venus,,44.393733,26.048159,,,,
6007,2110,Piata Sudului,,44.39242,26.122643,,,,
6025,2112,Cartier Aparatorii Patriei,,44.380602,26.134082,,,,
6028,2116,Faur,,44.434481,26.183185,,,,
6030,2119,Scut - Gherase,,44.457067,26.139052,,,,
3154,212,Buzesti,,44.445833,26.081335,,,,
6021,2122,A.C.R.,,44.349371,26.029626,,,,
6045,2123,Dumitru Slugeru,,44.453475,26.142457,,,,
6047,2124,Complex Comercial,,44.450868,26.146825,,,,
8699,2130,Bobesti,,44.386889,26.230674,,,,
8702,2132,Primaria Glina,,44.386072,26.246433,,,,
8703,2133,Dispensar,,44.384985,26.253073,,,,
6062,2134,Magazin,,44.352517,26.015369,,,,
8695,2135,Glina,,44.384752,26.255448,,,,
8704,2136,Dispensar,,44.385215,26.251409,,,,
8705,2137,Primaria Glina,,44.386155,26.246555,,,,
3786,2139,Spitalul Fundeni,,44.466795,26.156233,,,,
6050,2141,Scoala Generala 145,,44.455991,26.142668,,,,
6048,2142,Scoala Generala,,44.352928,26.000066,,,,
6053,2143,Sat Odai,,44.532754,26.06109,,,,
6067,2145,I. C. S. I. M.,,44.529499,26.04832,,,,
6066,2146,Ferma Odai,,44.527006,26.042071,,,,
6069,2147,Cimitirul Straulesti,,44.520233,26.025643,,,,
6070,2149,Cimitirul Straulesti,,44.519866,26.025083,,,,
7258,215,Aurel Vlaicu,,44.478932,26.101757,,,,
6074,2151,I. C. S. I. M.,,44.530042,26.051009,,,,
6075,2153,Sat Odai,,44.532434,26.060404,,,,
6076,2154,Scoala Generala,,44.353369,26.000982,,,,
6077,2155,Scut - Gherase,,44.457947,26.138182,,,,
6084,2156,Isovolta,,44.415413,26.217885,,,,
6083,2157,Fabrica de Oxigen,,44.421251,26.219113,,,,
6080,2158,I.C.M.E. Poarta 1,,44.423539,26.219883,,,,
6078,2159,Soseaua Industriilor,,44.426308,26.220911,,,,
6091,2160,C.F.R. Catelu,,44.411451,26.218261,,,,
3346,2161,Dumbrava Noua,,44.411997,26.168044,,,,
3347,2162,Dumbrava Noua,,44.412206,26.167405,,,,
3810,2164,Resita,,44.388305,26.104383,,,,
3349,2165,Postavarului,,44.417978,26.176122,,,,
6096,2167,Magazin,,44.352532,26.015141,,,,
6102,2172,C.F.R.,,44.391313,26.086373,,,,
6103,2173,Toporasi,,44.389683,26.091396,,,,
3359,2177,Postavarului,,44.417308,26.176098,,,,
6105,2178,Spitalul de Copii,,44.389038,26.109828,,,,
6104,2179,Spitalul de Copii,,44.389485,26.109948,,,,
3851,2183,Izvorul Rece,,44.388352,26.105467,,,,
6107,2187,A.C.R.,,44.34825,26.028276,,,,
7259,219,Arcul de Triumf,,44.467616,26.076701,,,,
6119,2192,Cartier Aparatorii Patriei,,44.37938,26.134978,,,,
6117,2193,Bd. Metalurgiei,,44.370304,26.141949,,,,
6125,2198,Bd. Metalurgiei,,44.371478,26.141179,,,,
3410,22,Pasaj Colentina,,44.477483,26.163283,,,,
3185,220,Depoul Bucurestii Noi,,44.477684,26.044953,,,,
6434,2204,Piata Romana,,44.446086,26.097027,,,,
6429,2209,Piata Hurmuzachi,,44.431622,26.137876,,,,
3186,221,Pajurei,,44.480053,26.043094,,,,
6423,2210,Dristorului,,44.42816,26.132095,,,,
6454,2211,Piata Alba Iulia,,44.425767,26.12735,,,,
6453,2212,Traian,,44.426174,26.118413,,,,
6456,2213,Biblioteca Nationala a Romaniei,,44.426499,26.111385,,,,
6455,2214,Bd. I. C. Bratianu,,44.426791,26.105122,,,,
6448,2215,Bd. I. C. Bratianu,,44.426578,26.104882,,,,
8708,2217,Bobesti,,44.386885,26.230942,,,,
3187,222,Bd. Gloriei,,44.483166,26.040664,,,,
6436,2221,Biblioteca Nationala a Romaniei,,44.426238,26.112544,,,,
6516,2222,Traian,,44.425898,26.119888,,,,
6518,2223,Piata Alba Iulia,,44.426694,26.129973,,,,
6514,2224,Dristorului,,44.428616,26.133256,,,,
6515,2225,Piata Hurmuzachi,,44.431349,26.137766,,,,
6520,2229,Pod Hasdeu,,44.433948,26.083513,,,,
6511,2230,Opera Nationala,,44.43414,26.080713,,,,
6509,2231,Bd. Constantin Brancoveanu,,44.396885,26.109752,,,,
6538,2233,Piata Titan,,44.41334,26.162939,,,,
6540,2234,Ilioara,,44.413968,26.156411,,,,
6542,2235,Ilioara,,44.413495,26.157383,,,,
6545,2236,Piata Titan,,44.414269,26.164476,,,,
6546,2239,C.F.R. Progresul,,44.369772,26.089232,,,,
6533,2240,Soseaua Garii Catelu,,44.425402,26.220765,,,,
6531,2241,Piata Iancului,,44.441386,26.135631,,,,
6536,2242,Pod Hasdeu,,44.433364,26.084858,,,,
6488,2244,Fabrica de Paine,,44.40508,26.074016,,,,
6486,2247,Lucian Blaga,,44.425708,26.123812,,,,
6484,2248,Sarafinesti,,44.442867,26.147254,,,,
8764,2250,11 Iunie,,44.314302,26.018361,,,,
6497,2257,Bufet,,44.34334,26.026922,,,,
6498,2258,Dumitrana,,44.327439,26.003175,,,,
6496,2259,Scoala Generala,,44.322905,25.9978,,,,
6495,2260,Scoala Generala,,44.322792,25.997752,,,,
6494,2261,Dumitrana,,44.327278,26.003017,,,,
6492,2262,Bufet,,44.343628,26.027142,,,,
6490,2263,A.C.R.,,44.347898,26.029017,,,,
8774,2265,11 Iunie,,44.314559,26.018598,,,,
6572,2266,Foradex,,44.488896,26.065316,,,,
6571,2267,Foradex,,44.48836,26.065544,,,,
6574,2268,Piata Rahova,,44.406743,26.064842,,,,
6573,2269,Petre Ispirescu,,44.410345,26.069922,,,,
6588,2277,Piata Romana,,44.445345,26.097654,,,,
6593,2281,S.C. Ispas Marin,,44.324213,25.999043,,,,
6592,2282,S.C. Ispas Marin,,44.324251,25.999247,,,,
6553,2290,Piata Sf. Vineri,,44.429476,26.107362,,,,
6551,2292,Piata Unirii,,44.428934,26.104559,,,,
3796,2294,Aliorului,,44.379205,26.118185,,,,
3411,23,Pasaj Colentina,,44.477665,26.163251,,,,
3450,2302,Pod Mihai Bravu,,44.409578,26.123248,,,,
3446,2303,Gheorghe Petrascu,,44.428258,26.138667,,,,
3448,2305,Mieilor,,44.435303,26.137237,,,,
3449,2306,Gheorghe Petrascu,,44.428101,26.138564,,,,
3445,2309,Bd. Iuliu Maniu,,44.435048,26.054427,,,,
3433,2310,Pod Grozavesti,,44.44262,26.06052,,,,
3435,2311,Calea Plevnei,,44.447229,26.063138,,,,
3430,2312,Pod Grozavesti,,44.442366,26.060353,,,,
3432,2313,Bd. Iuliu Maniu,,44.43476,26.054364,,,,
3426,2314,Bd. Timisoara,,44.429072,26.054458,,,,
3428,2315,Piata Danny Huwe,,44.428829,26.06185,,,,
3623,232,Pajurei,,44.480306,26.042828,,,,
12076,2328,Apicola,,44.492358,26.088057,,,,
12217,2329,Aeroport Baneasa,,44.495155,26.080808,,,,
3624,233,Depoul Bucurestii Noi,,44.477194,26.045282,,,,
12077,2331,Apicola,,44.492543,26.087753,,,,
7630,234,Dezrobirii,,44.440236,26.02604,,,,
6693,2341,Teatrul Metropolis,,44.448392,26.107394,,,,
3528,2343,Hristo Botev,,44.435316,26.108577,,,,
3525,2344,Romancierilor,,44.426584,26.02329,,,,
3533,2345,Frigocom,,44.426095,26.017367,,,,
3531,2346,Valea Oltului,,44.424755,26.012358,,,,
3524,2349,C.F.R. Cotroceni,,44.42807,26.001469,,,,
7632,235,Teatrul Masca,,44.438554,26.029774,,,,
3542,2350,Brasov,,44.427443,26.034239,,,,
3544,2351,Romancierilor,,44.426593,26.02397,,,,
3545,2352,Frigocom,,44.426124,26.01805,,,,
3548,2353,Valea Oltului,,44.424865,26.012978,,,,
3504,2356,C.F.R. Cotroceni,,44.428663,26.00191,,,,
7631,236,Pasaj Lujerului,,44.436442,26.034311,,,,
3515,2361,Bd. Banu Manta,,44.452611,26.074274,,,,
3517,2362,Dr. Felix,,44.452116,26.080488,,,,
3510,2363,Autogara Filaret,,44.414767,26.091732,,,,
3512,2364,Parcul Carol I,,44.418844,26.096643,,,,
3479,2365,Bd. Dimitrie Cantemir,,44.42105,26.103679,,,,
3476,2366,Pasaj Marasesti,,44.422599,26.10852,,,,
3483,2367,Pasaj Marasesti,,44.422599,26.108418,,,,
3481,2368,Bd. Dimitrie Cantemir,,44.42132,26.10436,,,,
3484,2369,Parcul Carol I,,44.418689,26.09604,,,,
7634,237,Pasaj Lujerului,,44.43696,26.033341,,,,
3495,2370,Autogara Filaret,,44.4146,26.091358,,,,
3501,2375,Faur Poarta 4,,44.427017,26.179599,,,,
3460,2376,Liviu Rebreanu,,44.423921,26.1757,,,,
3458,2377,Barajul Dunarii,,44.424835,26.170818,,,,
3456,2378,Bd. 1 Decembrie 1918,,44.423809,26.176112,,,,
3454,2379,Pictor Harlescu,,44.438114,26.158635,,,,
7633,238,Teatrul Masca,,44.438533,26.02996,,,,
3464,2381,Bd. Banu Manta,,44.452701,26.07395,,,,
3473,2383,Pictor Harlescu,,44.438736,26.158258,,,,
3475,2384,Bd. Basarabia,,44.435179,26.159936,,,,
3469,2385,Sibiu,,44.428253,26.048168,,,,
3610,2387,Sergent Moise,,44.428005,26.039937,,,,
3611,2388,Bd. Uverturii,,44.436916,26.035197,,,,
3609,2389,Piata Crangasi,,44.452362,26.047362,,,,
3594,2390,Pasaj Grant,,44.45373,26.052704,,,,
3592,2391,Turda,,44.456908,26.065932,,,,
3590,2393,Pasaj Grant,,44.456967,26.066001,,,,
3588,2394,Piata Crangasi,,44.452242,26.047117,,,,
3827,2398,Armeneasca,,44.436791,26.109535,,,,
3412,24,Nicolae Canea,,44.47576,26.159014,,,,
3871,2400,Mihai Eminescu,,44.44406,26.11995,,,,
3870,2401,Fainari,,44.447438,26.123161,,,,
3869,2403,Mihai Eminescu,,44.444536,26.12011,,,,
3867,2404,Bd. Carol I,,44.438755,26.114888,,,,
3866,2405,Armeneasca,,44.43707,26.110581,,,,
3873,2409,Calea Dorobantilor,,44.446874,26.099778,,,,
6644,2412,Petru Rares,,44.45184,26.072969,,,,
6647,2418,Precizia,,44.497326,26.029504,,,,
6648,2419,Bd. Gloriei,,44.482965,26.040646,,,,
7609,242,Dezrobirii,,44.440894,26.024849,,,,
6233,2420,Precizia,,44.497979,26.029252,,,,
3408,2422,Nerva Traian,,44.423918,26.118038,,,,
3409,2423,Nerva Traian,,44.423947,26.119194,,,,
3404,2424,Pod Ciurel,,44.445998,26.03844,,,,
3405,2425,Pod Ciurel,,44.445719,26.038186,,,,
7608,243,Bd. Chisinau,,44.442028,26.157221,,,,
6244,2430,Soldat Radu Tina,,44.427721,26.212282,,,,
6219,2431,Bucur,,44.428764,26.207628,,,,
6221,2432,Scoala Generala 55,,44.429992,26.202137,,,,
6216,2433,Complex Comercial,,44.431082,26.197343,,,,
6212,2435,Meiului,,44.431441,26.195271,,,,
6215,2436,Complex Comercial,,44.430887,26.197718,,,,
6208,2437,Scoala Generala 55,,44.429837,26.202444,,,,
6210,2438,Bucur,,44.428591,26.207931,,,,
6223,2439,Soldat Radu Tina,,44.427534,26.212688,,,,
7607,244,Cimitirul Militari,,44.442171,26.021999,,,,
6228,2441,I. C. M. E. Poarta 1,,44.423117,26.219638,,,,
6274,2445,Pictor Harlescu,,44.43797,26.158548,,,,
6275,2446,Sold. Mihale Stelian,,44.415946,26.166884,,,,
8501,2450,Scoala Nr 2,,44.623211,26.110425,,,,
6291,2451,Bd. Ion Mihalache,,44.455839,26.079552,,,,
6255,2457,Podul Grozavesti,,44.440963,26.059547,,,,
6254,2459,Calea Plevnei,,44.448232,26.06554,,,,
6270,2460,Spitalul Clinic Filantropia,,44.453344,26.083067,,,,
6319,2464,Calea Giulesti,,44.447237,26.062019,,,,
6318,2465,Bd. Regiei,,44.446205,26.060328,,,,
6321,2466,Podul Grozavesti,,44.442132,26.060163,,,,
6317,2469,Piata Eroii Revolutiei,,44.404592,26.096317,,,,
7610,247,Aragonitului,,44.441433,26.017836,,,,
3757,2472,Aliorului,,44.378675,26.118362,,,,
6299,2476,Pipera,,44.484369,26.110556,,,,
6297,2478,Turnu Magurele,,44.377215,26.110034,,,,
6302,2484,Mircea Voda,,44.426991,26.11208,,,,
6304,2485,A.S.E.,,44.447601,26.099356,,,,
6370,2486,Scoala Iancului,,44.439427,26.123722,,,,
6372,2488,Vatra Luminoasa,,44.436876,26.136483,,,,
6371,2489,Gheorghe Petrascu,,44.428394,26.138528,,,,
6373,2490,Baba Novac,,44.425529,26.137351,,,,
6375,2492,Gheorghe Petrascu,,44.427984,26.138679,,,,
6377,2493,Maior Coravu,,44.435799,26.137303,,,,
6347,2499,Bd. Banu Manta,,44.455929,26.079303,,,,
3413,25,Cornisor,,44.473516,26.154626,,,,
6126,2500,Matei Basarab,,44.43107,26.111552,,,,
6131,2501,Piata Sf. Vineri,,44.429946,26.106365,,,,
6124,2505,Soseaua Bucuresti-Ploiesti 107,,44.524508,26.072228,,,,
3868,2506,Lujerului,,44.434341,26.033749,,,,
3373,2507,Bd. Expozitiei,,44.473408,26.059777,,,,
6118,2508,Biserica Chiajna,,44.461546,25.976779,,,,
3872,2509,Ciceu,,44.378112,26.123825,,,,
3916,251,Carol Davila,,44.437625,26.068928,,,,
6142,2511,Itcani,,44.465402,26.14944,,,,
3389,2523,Grivita,,44.473152,26.053984,,,,
6176,2524,Liceul Teoretic Radu Popescu,,44.381592,26.174305,,,,
6174,2525,Gheorghe Costa-Foru,,44.380962,26.179389,,,,
6172,2526,Taberei,,44.379763,26.188601,,,,
6170,2527,Posada,,44.378178,26.199606,,,,
6169,2528,Domnita Balasa,,44.377247,26.206156,,,,
6168,2529,Fortului,,44.376773,26.210742,,,,
3650,253,Muzeul Bacovia,,44.397751,26.096038,,,,
6203,2530,C.F.R. Centura,,44.377032,26.215221,,,,
6206,2532,C.F.R. Centura,,44.377035,26.214945,,,,
6205,2533,Fortului,,44.376847,26.210524,,,,
6199,2534,Domnita Balasa,,44.377341,26.2059,,,,
6198,2535,Posada,,44.378167,26.2001,,,,
6201,2536,Taberei,,44.379855,26.188466,,,,
6200,2537,Gheorghe Costa-Foru,,44.380973,26.179699,,,,
6197,2538,Liceul Teoretic Radu Popescu,,44.381726,26.173942,,,,
3648,254,Piata Progresul,,44.393226,26.093963,,,,
7548,2541,Condax,,44.476773,26.006387,,,,
7549,2543,Intrarea Caramidariei,,44.467146,26.010769,,,,
7551,2544,Scoala,,44.469912,26.00321,,,,
7542,2545,Poiana Lacului,,44.467505,26.016249,,,,
7545,2547,Condax,,44.477007,26.006162,,,,
3538,2549,Grivita,,44.472784,26.055674,,,,
3652,255,Toporasi,,44.389956,26.092457,,,,
8352,2555,Stupinei,,44.621417,26.101667,,,,
3513,2556,Bd. Ion Mihalache,,44.471523,26.051841,,,,
7532,2557,Mihai Viteazul,,44.489855,26.026546,,,,
7530,2558,Spatarul Preda,,44.414076,26.086015,,,,
3651,256,Drumul Gazarului,,44.386465,26.09215,,,,
7518,2562,Piata Eroii Revolutiei,,44.405873,26.095288,,,,
7511,2563,Stefan Hepites,,44.408642,26.090823,,,,
7513,2564,Garleni,,44.415561,26.048288,,,,
7515,2565,Garleni,,44.415512,26.049283,,,,
7516,2567,Bd. Ceahlau,,44.453687,26.051289,,,,
7517,2569,Pod Ciurel,,44.446318,26.038746,,,,
3646,257,Cimitirul Evreiesc,,44.382627,26.092305,,,,
7507,2570,Bd. Ceahlau,,44.453638,26.052968,,,,
7508,2573,Mihai Viteazul,,44.489242,26.026013,,,,
3737,2575,Facultatea de Drept,,44.434464,26.080721,,,,
7502,2579,C.F.R. Cotroceni,,44.427592,26.001158,,,,
3727,2580,Autogara Militari,,44.43372,26.007061,,,,
7492,2581,Rossini,,44.459881,26.106698,,,,
7490,2583,Rossini,,44.460701,26.107163,,,,
3722,2585,Avrig,,44.445412,26.133007,,,,
3647,259,Cimitirul Progresul,,44.381777,26.084542,,,,
7474,2593,Soseaua Colentina,,44.462688,26.13174,,,,
7476,2594,Soseaua Pantelimon,,44.445876,26.135082,,,,
3698,2597,Calea Grivitei,,44.447193,26.078273,,,,
3414,26,Sportului,,44.471312,26.150347,,,,
3626,260,Baciului,,44.383833,26.08142,,,,
7344,2600,Calea Dudesti,,44.419793,26.137979,,,,
7339,2609,Soseaua Pipera,,44.479063,26.093401,,,,
7367,2610,Aurel Vlaicu,,44.479519,26.100585,,,,
7363,2613,Nicolae Caramfil,,44.479583,26.092604,,,,
7361,2618,Soseaua Campia Libertatii,,44.425515,26.149967,,,,
7309,2620,Fizicienilor,,44.414578,26.153735,,,,
7315,2622,Soseaua Campia Libertatii,,44.425491,26.150083,,,,
3816,2624,Grup Scolar Auto,,44.435466,25.976221,,,,
3815,2625,Victoria,,44.434844,25.983442,,,,
3822,2626,Nufarul,,44.434071,25.992566,,,,
3821,2627,Master,,44.433692,25.99828,,,,
3818,2628,Valea Cascadelor,,44.433956,26.004789,,,,
3817,2629,Master,,44.433861,25.997411,,,,
3625,263,Baciului,,44.38404,26.08109,,,,
3828,2630,Nufarul,,44.434294,25.991933,,,,
3831,2631,Victoria,,44.435116,25.982235,,,,
7324,2632,Grup Scolar Auto,,44.43568,25.975614,,,,
3832,2634,Manea Serban,,44.408325,26.053587,,,,
7326,2635,Soseaua Alexandriei,,44.398206,26.048746,,,,
3835,2636,Manea Serban,,44.408896,26.054015,,,,
7329,2637,Cartier Damaroaia,,44.488225,26.051463,,,,
7327,2638,Dridu,,44.485119,26.056728,,,,
7330,2639,Hotel Parc,,44.481545,26.063243,,,,
3638,264,Cimitirul Progresul,,44.381823,26.08442,,,,
7275,2640,Casa Presei,,44.47924,26.069376,,,,
7273,2642,Casa Presei,,44.479554,26.069157,,,,
7272,2643,Hotel Parc,,44.482144,26.062223,,,,
7270,2644,Dridu,,44.485086,26.055391,,,,
10847,2648,Bd. Dr. Marinescu,,44.436136,26.066587,,,,
12121,2649,Piata Eroilor,,44.431857,26.068518,,,,
3637,265,Soseaua Giurgiului,,44.378856,26.091317,,,,
10848,2650,Facultatea de Medicina,,44.43419,26.069441,,,,
8675,2651,Gradinari,,44.443549,25.891003,,,,
8676,2652,Complex Comercial,,44.443489,25.883194,,,,
8677,2653,Camin Cultural,,44.44209,25.875685,,,,
8689,2654,Complex Comercial,,44.443515,25.884693,,,,
8690,2655,Gradinari,,44.443418,25.891476,,,,
3331,2656,Ostasilor,,44.438604,26.084078,,,,
7294,2657,Cartier Damaroaia,,44.488108,26.050389,,,,
7293,2658,Aragonitului,,44.440999,26.017205,,,,
7298,2659,Ferma Avicola,,44.544274,25.970226,,,,
3636,266,Cimitirul Evreiesc,,44.382459,26.092367,,,,
7303,2660,Buciumeni,,44.547,25.965227,,,,
7124,2662,Posta,,44.562571,25.948926,,,,
7126,2663,Oras Buftea,,44.575173,25.941473,,,,
7128,2664,Posta,,44.562508,25.94887,,,,
7130,2665,Drumul Ciocanesti,,44.556947,25.95295,,,,
7117,2666,Buciumeni,,44.546524,25.965792,,,,
7121,2667,Ferma Avicola,,44.543769,25.971455,,,,
10849,2668,Piata Operei,,44.434296,26.076492,,,,
3635,267,Drumul Gazarului,,44.386089,26.092221,,,,
7109,2670,Facultatea de Drept,,44.434393,26.080921,,,,
7113,2671,Drumul Sarii,,44.428049,26.060311,,,,
7111,2672,Piata Danny Huwe,,44.42821,26.060721,,,,
7101,2674,Piata Romana,,44.44619,26.097232,,,,
3730,2675,Ciceu,,44.378189,26.124338,,,,
7097,2676,Piata Timpuri Noi,,44.413708,26.114097,,,,
7090,2678,Piata Timpuri Noi,,44.412034,26.114573,,,,
3634,268,Toporasi,,44.390153,26.092599,,,,
3462,2683,Soseaua Viilor,,44.411062,26.088486,,,,
3781,2685,Soseaua Mihai Bravu,,44.407937,26.120038,,,,
7167,2687,Artistilor,,44.295199,26.06111,,,,
7168,2688,1 Decembrie,,44.284055,26.053679,,,,
3633,269,Piata Progresul,,44.392872,26.093859,,,,
7685,2695,1 Decembrie,,44.284282,26.053696,,,,
7151,2696,Artistilor,,44.295728,26.061367,,,,
3415,27,Cartier Colentina,,44.468484,26.142367,,,,
3566,270,Muzeul Bacovia,,44.397355,26.095923,,,,
6959,2703,Dumbraveni,,44.376247,25.982758,,,,
6960,2704,Primaria Bragadiru,,44.36879,25.973696,,,,
8597,2705,Soseaua Clinceni,,44.364134,25.97044,,,,
8596,2707,Primaria Cornetu,,44.343151,25.943942,,,,
6978,2710,Primaria Bragadiru,,44.368652,25.97371,,,,
6979,2711,Dumbraveni,,44.375654,25.982288,,,,
6981,2713,Pod Centura,,44.38114,25.988143,,,,
7579,272,Doi Cocosi,,44.507493,26.02467,,,,
10697,2726,Biserica Sintesti,,44.30599,26.11544,,,,
7585,273,Buzias,,44.510323,26.021423,,,,
10704,2732,Biserica Cretesti,,44.277253,26.134745,,,,
7583,274,Bd. Petrila,,44.513253,26.018018,,,,
6890,2747,C.F.R.,,44.391055,26.087059,,,,
7586,275,Valea Argesului,,44.416005,26.016416,,,,
6918,2752,Pod Vitan,,44.404604,26.142267,,,,
10717,2758,Biserica Cretesti,,44.27752,26.134769,,,,
7587,276,C.F.R. Centura,,44.514913,26.016074,,,,
10724,2764,Biserica Sintesti,,44.306421,26.115268,,,,
3808,277,Turnu Magurele,,44.377008,26.119983,,,,
8626,2771,Morii,,44.332488,26.070995,,,,
3845,2774,Metro Militari,,44.43447,25.987863,,,,
3843,2775,Metro Militari,,44.434743,25.986463,,,,
6939,2777,Universitatea Nationala de Aparare,,44.428506,26.064632,,,,
6941,2778,Spitalul Dr. Th. Burghele,,44.424287,26.071758,,,,
6940,2779,Spitalul Dr. Burghele,,44.424762,26.071679,,,,
6942,2780,Dr. Mihai Ciuca,,44.426536,26.068358,,,,
6943,2781,Universitatea Nationala de Aparare,,44.430282,26.062194,,,,
3824,2786,Palatul National al Copiilor,,44.408504,26.116031,,,,
6793,2787,Neatarnarii,,44.485634,26.04412,,,,
3572,2791,Universitatea Romano-Americana,,44.474364,26.0663,,,,
3573,2792,Universitatea Romano-Americana,,44.474478,26.066827,,,,
6816,2795,Piata Presei,,44.475491,26.07233,,,,
6812,2797,Piata Crangasi,,44.451024,26.047217,,,,
6810,2798,A.N.E.F.S.,,44.438938,26.06956,,,,
6809,2799,Complex Grozavesti,,44.442983,26.062497,,,,
3416,28,Raul Colentina,,44.467058,26.139256,,,,
3551,280,Piata Ferentari,,44.398613,26.084819,,,,
6618,2800,Complex Regie,,44.444829,26.052836,,,,
6621,2801,G-ral Petre Popovat,,44.445727,26.047984,,,,
6639,2805,Spitalul Universitar,,44.436842,26.072511,,,,
6630,2806,Piata Presei,,44.478639,26.0716,,,,
6634,2809,Piata de Gros,,44.360979,26.130212,,,,
3549,281,Armistitiului,,44.403044,26.081757,,,,
3557,282,Cibinului,,44.406214,26.079748,,,,
6468,2821,Dr. Mihai Ciuca,,44.426024,26.068742,,,,
3205,2825,Toamnei,,44.448849,26.116025,,,,
3202,2826,Toamnei,,44.449259,26.116504,,,,
3199,2827,Dr. Felix,,44.448983,26.081806,,,,
3555,283,Soseaua Salaj,,44.408074,26.078222,,,,
6461,2832,Frigocom,,44.426,26.017722,,,,
6463,2833,Brasov,,44.427375,26.034425,,,,
6462,2834,Sergent Moise,,44.427918,26.041936,,,,
6459,2835,Sibiu,,44.428249,26.049341,,,,
6458,2836,Teatrul Dramaturgilor Romani,,44.445621,26.082216,,,,
3693,2837,Mecet,,44.437791,26.127816,,,,
3690,2838,Mecet,,44.437667,26.128088,,,,
6452,2841,Bd. Dacia,,44.444697,26.088815,,,,
6449,2843,Piata Danny Huwe,,44.428888,26.05957,,,,
6445,2847,Sibiu,,44.428398,26.048098,,,,
6444,2848,Sergent Moise,,44.428076,26.040073,,,,
6443,2849,Brasov,,44.42728,26.031096,,,,
6435,2850,Frigocom,,44.426165,26.017036,,,,
7561,286,Soseaua Bucuresti-Ploiesti,,44.494305,26.080139,,,,
6541,2860,Romancierilor,,44.426601,26.024988,,,,
6543,2861,Romancierilor,,44.426718,26.023866,,,,
3783,2863,Gara de Nord,,44.448284,26.074188,,,,
7562,287,Piata Floreasca,,44.460083,26.100882,,,,
6521,2878,Spitalul Dr. Marinescu,,44.385965,26.128677,,,,
6522,2879,Spitalul Dr. Marinescu,,44.386632,26.12829,,,,
6493,2891,Upetrolam,,44.358393,26.151086,,,,
6491,2892,Upetrolam,,44.358478,26.15117,,,,
6487,2895,Soseaua Salaj,,44.393405,26.066754,,,,
6483,2898,Zefirul,,44.442423,26.143148,,,,
3417,29,Doamna Ghica,,44.462382,26.133229,,,,
3598,290,Brasov,,44.414809,26.034983,,,,
6135,2905,Complex Comercial,,44.42695,26.029376,,,,
6136,2906,Complex Comercial,,44.427062,26.028425,,,,
6140,2909,Jandarmeriei,,44.509003,26.061538,,,,
6115,2910,Scoala Generala 309,,44.431717,26.01897,,,,
6116,2911,Scoala Generala 309,,44.431261,26.018455,,,,
3859,2912,Liceul Nichita Stanescu,,44.433336,26.168422,,,,
3862,2913,Liceul Nichita Stanescu,,44.432857,26.168132,,,,
3370,2914,Luica,,44.378384,26.091651,,,,
3371,2915,Luica,,44.379197,26.091811,,,,
6111,2919,Atlasului,,44.506411,26.059803,,,,
6189,2921,Oaspetilor,,44.50295,26.057624,,,,
6182,2923,Atlasului,,44.506583,26.058546,,,,
3392,2925,Gelcap,,44.482262,26.124705,,,,
3393,2926,Gelcap,,44.482192,26.125028,,,,
7682,2929,Piata Sf. Gheorghe,,44.432841,26.105651,,,,
3596,293,Bd. Timisoara,,44.42699,26.033269,,,,
3388,2930,Piata Buzesti,,44.448082,26.082468,,,,
3903,2933,Gradina Cismigiu,,44.434706,26.093778,,,,
3897,2934,Gradina Cismigiu,,44.434623,26.094407,,,,
6157,2935,Catanoaia,,44.426677,26.216497,,,,
6153,2936,Catanoaia,,44.426867,26.216092,,,,
6155,2937,Piata Gorjului,,44.433944,26.019839,,,,
6150,2938,Gara Progresul,,44.366021,26.090856,,,,
6151,2939,Bd. Nicolae Balcescu,,44.440534,26.099014,,,,
3675,2940,Vasile Parvan,,44.436243,26.083949,,,,
5964,2943,Semanatoarea,,44.445299,26.047347,,,,
5969,2945,Pod Grozavesti,,44.442648,26.061835,,,,
5939,2951,Piata Arsenalului,,44.42482,26.076523,,,,
5941,2954,Electronica,,44.448728,26.147163,,,,
5940,2955,Electronica,,44.448621,26.147598,,,,
5944,2956,Pasaj Colentina,,44.478417,26.163918,,,,
5943,2957,Zefirul,,44.442373,26.144173,,,,
3597,296,Bd. Timisoara,,44.426793,26.033269,,,,
7746,2961,Primaria Balotesti,,44.626292,26.069323,,,,
8605,2962,Primaria Balotesti,,44.626582,26.069128,,,,
6006,2968,Piata Aparatorii Patriei,,44.37871,26.135643,,,,
3697,2973,Trambitei,,44.411181,26.055006,,,,
5990,2978,Teiul Doamnei,,44.463862,26.126049,,,,
5989,2979,Grigore Ionescu,,44.459931,26.126832,,,,
5975,2980,Teiul Doamnei,,44.458073,26.128373,,,,
6026,2981,Grigore Ionescu,,44.460682,26.126748,,,,
3279,2982,Barajul Rovinari,,44.430203,26.173482,,,,
3275,2983,Barajul Iezeru,,44.432534,26.172651,,,,
3276,2984,Bd. Basarabia,,44.435987,26.172881,,,,
3282,2985,Barajul Iezeru,,44.43288,26.172476,,,,
3283,2986,Barajul Rovinari,,44.430348,26.173366,,,,
6023,2989,Petre Ispirescu,,44.418588,26.059938,,,,
3733,2993,Soseaua Nicolae Titulescu,,44.450255,26.069515,,,,
3734,2994,Gara de Nord,,44.448071,26.074272,,,,
3736,2995,Nicolae Titulescu,,44.450741,26.068975,,,,
3738,2996,Pasaj Grant,,44.456291,26.061798,,,,
3129,3,Penes Curcanul,,44.412094,26.1279,,,,
3418,30,Teiul Doamnei,,44.45742,26.130334,,,,
3244,300,Stefan Hepites,,44.408411,26.090968,,,,
3344,3001,Hristo Botev,,44.433941,26.107598,,,,
3342,3002,Bd. Carol I,,44.438534,26.114926,,,,
3324,3003,Mihai Eminescu,,44.443312,26.119142,,,,
3325,3004,Bucur Obor,,44.450537,26.125453,,,,
3322,3005,Bucur Obor,,44.450224,26.125149,,,,
3323,3006,Mihai Eminescu,,44.443805,26.11951,,,,
3328,3007,Bd. Carol I,,44.438024,26.114524,,,,
3792,3009,Stoica Ludescu,,44.453663,26.06441,,,,
3795,3010,Stoica Ludescu,,44.452659,26.065686,,,,
6906,3011,Parcul Bazilescu,,44.488548,26.036611,,,,
6903,3012,Parcul Bazilescu,,44.487733,26.036953,,,,
3363,3014,Soseaua Crangasi,,44.453691,26.052104,,,,
6938,3018,Bd. Ghencea,,44.415018,26.034775,,,,
3352,3028,Zetarilor,,44.386278,26.078242,,,,
3356,3031,Piata Titan,,44.413253,26.162567,,,,
3355,3032,Piata Titan,,44.412867,26.164754,,,,
3377,3036,Univ. Crestina Dimitrie Cantemir,,44.416532,26.11281,,,,
6977,3039,Univ. Crestina Dimitrie Cantemir,,44.416449,26.113784,,,,
3252,304,Piata Sudului,,44.393576,26.12172,,,,
3384,3041,Universitatea Hyperion,,44.432376,26.125944,,,,
3385,3042,Universitatea Hyperion,,44.432393,26.125588,,,,
3386,3043,Faur Poarta 4,,44.426907,26.178984,,,,
3387,3044,Faur Poarta 4,,44.426622,26.179002,,,,
6994,3046,Combinatul Fondului Plastic,,44.483433,26.064082,,,,
6957,3047,Combinatul Fondului Plastic,,44.483284,26.063323,,,,
6956,3048,Penitenciarul Rahova,,44.39418,26.032069,,,,
6955,3049,Penitenciarul Rahova,,44.394295,26.032816,,,,
6879,305,Sala Lucian Grigorescu,,44.465199,26.095876,,,,
6976,3050,Nasaud,,44.409138,26.077085,,,,
6974,3052,Piata Gorjului,,44.434148,26.019537,,,,
9368,3055,Erou Iancu Nicolae,,44.513513,26.137998,,,,
3260,307,Soseaua Salaj,,44.408463,26.0778,,,,
3258,308,Cibinului,,44.406357,26.079608,,,,
7041,3083,City Center,,44.480489,26.06667,,,,
7037,3084,Ancuta Baneasa,,44.469764,26.104021,,,,
7034,3085,Ancuta Baneasa,,44.470312,26.104439,,,,
3659,3086,Cimitirul Sfanta Vineri,,44.458476,26.060012,,,,
3656,3087,Caraiman,,44.460263,26.058633,,,,
3264,309,Armistitiului,,44.40327,26.081547,,,,
7059,3097,Fabrica de Oxigen,,44.420798,26.218876,,,,
3419,31,Ziduri Mosi,,44.454064,26.127963,,,,
3159,310,Piata Ferentari,,44.398616,26.084781,,,,
3242,3100,Dr. Constantin Istrati,,44.411012,26.089178,,,,
7267,3101,Isovolta,,44.415567,26.217622,,,,
7266,3104,Fagului,,44.374139,26.177405,,,,
7265,3105,Fagului,,44.374604,26.176938,,,,
7264,3106,Calea Giulesti,,44.448149,26.064321,,,,
7262,3111,Teatrul Masca,,44.485341,26.038825,,,,
7263,3112,Teatrul Masca,,44.486183,26.038417,,,,
7322,3114,Fundatia Aisteda,,44.405619,26.136025,,,,
7323,3115,Piata Clabucet,,44.471533,26.050043,,,,
7325,3116,Piscul Rachitei,,44.406848,26.130841,,,,
3361,3117,Soseaua Mihai Bravu,,44.419919,26.137915,,,,
7311,3124,Piata Ferentarilor,,44.397408,26.08487,,,,
3814,3125,Biserica Delea Veche,,44.433885,26.127356,,,,
3811,3126,Biserica Delea Veche,,44.433553,26.127719,,,,
7312,3128,Mezes,,44.485596,26.02197,,,,
7314,3129,Mezes,,44.48457,26.024165,,,,
3333,3135,Univ. Crestina Dimitrie Cantemir,,44.416413,26.112509,,,,
7295,3136,Ghidigeni,,44.41263,26.022575,,,,
7296,3137,Soseaua Chitila,,44.476848,26.044096,,,,
7297,3138,Bd. Bucurestii Noi,,44.476793,26.043547,,,,
7302,3142,Slatina,,44.38411,26.046758,,,,
7300,3143,Slatina,,44.384982,26.046975,,,,
7304,3145,Brodina,,44.498155,26.07287,,,,
7276,3147,Uzitex,,44.406299,26.133191,,,,
6873,315,Comisani,,44.37562,26.137898,,,,
3799,3154,Clabucet,,44.470478,26.050354,,,,
3798,3156,Lainici,,44.465596,26.05426,,,,
3918,3158,Griro,,44.461062,26.057765,,,,
3921,3159,Caraiman,,44.459252,26.059179,,,,
3931,3160,Cimitirul Sfanta Vineri,,44.457532,26.060519,,,,
3932,3161,Pasaj Grant,,44.455755,26.061928,,,,
3933,3164,Griro,,44.461996,26.057295,,,,
3935,3166,Lainici,,44.466355,26.053877,,,,
3905,3168,Clabucet,,44.470605,26.050561,,,,
7383,3170,Clabucet,,44.470641,26.051855,,,,
6871,318,Depozit Pajura,,44.484246,26.047631,,,,
7368,3182,Brazi,,44.51806,26.241851,,,,
7369,3183,Brazi,,44.517646,26.240831,,,,
7370,3184,Primaria Afumati,,44.522701,26.248517,,,,
7371,3185,Primaria Afumati,,44.523061,26.24882,,,,
6872,319,Bd. Bucurestii Noi,,44.483633,26.04158,,,,
3196,320,Piata Sudului,,44.393792,26.121274,,,,
3197,321,Husi,,44.396016,26.115527,,,,
6092,3211,Scoala Olteni,,44.393156,25.948324,,,,
6097,3212,Cimitir Caltuna,,44.389198,25.934065,,,,
6095,3215,Cimitir Caltuna,,44.389154,25.934112,,,,
6094,3216,Scoala Olteni,,44.3933,25.948587,,,,
3198,322,Bd. Constantin Brancoveanu,,44.397984,26.110405,,,,
3192,323,Opris Ilie,,44.400046,26.104613,,,,
3850,3233,R.A.R.,,44.468033,26.052355,,,,
3732,3234,R.A.R.,,44.468813,26.05198,,,,
3194,324,Cimitirul Serban Voda,,44.401242,26.100115,,,,
6008,3243,Prelungirea Ghencea,,44.412921,26.024469,,,,
6009,3244,Radovanu,,44.466558,26.147195,,,,
6027,3245,F. C. Juventus,,44.467594,26.145624,,,,
8395,3246,Ferma 4,,44.484172,25.921063,,,,
8394,3247,Ferma 4,,44.4843,25.920724,,,,
6024,3248,Docentilor,,44.46241,26.080451,,,,
3745,3253,Polizu,,44.447202,26.078618,,,,
3247,3254,Turmelor,,44.453143,26.126023,,,,
3300,3256,Papazoglu,,44.421275,26.116647,,,,
3297,3257,Papazoglu,,44.421181,26.116657,,,,
6046,3258,Aeroport Henri Coanda Sosiri,,44.569015,26.077337,,,,
6044,3259,Aeroport Henri Coanda Plecari,,44.571397,26.076683,,,,
6031,3263,Baciului,,44.383652,26.081544,,,,
6032,3264,Cimitirul Progresul,,44.381591,26.084743,,,,
6033,3265,Cimitirul Progresul,,44.382025,26.084189,,,,
6035,3266,Baciului,,44.384384,26.080816,,,,
6065,3267,Zetarilor,,44.385885,26.078837,,,,
6064,3268,Piata Romana,,44.44669,26.095264,,,,
6063,3269,Soseaua Giurgiului,,44.378963,26.091065,,,,
3189,327,Piata Danny Huwe,,44.428603,26.062046,,,,
6055,3270,Cimitirul Magurele,,44.371545,26.04383,,,,
6057,3271,Cimitirul Magurele,,44.371595,26.043912,,,,
9032,3274,Piata Operei,,44.434351,26.074955,,,,
6052,3275,Soseaua Fundeni,,44.465098,26.148156,,,,
6049,3276,Soseaua Nicolae Titulescu,,44.45072,26.070103,,,,
6051,3277,Maior Bacila,,44.46492,26.139525,,,,
5937,3278,Radovanu,,44.462036,26.142446,,,,
5938,3279,Minerilor,,44.463231,26.146236,,,,
3190,328,Calea Rahovei,,44.416363,26.077728,,,,
5923,3280,Rascoala 1907,,44.463105,26.143974,,,,
5927,3281,Radovanu,,44.462492,26.142038,,,,
5926,3282,Maior Bacila,,44.465283,26.13921,,,,
5928,3284,Bd. B.P.Hasdeu,,44.430906,26.083971,,,,
5933,3285,Prestige,,44.380517,26.155521,,,,
5932,3286,Prestige,,44.380677,26.15483,,,,
5936,3287,Doina,,44.411365,26.07858,,,,
5935,3288,Soseaua Progresului,,44.414424,26.080955,,,,
3191,329,Spatarul Preda,,44.411333,26.083719,,,,
5952,3290,Doina,,44.41072,26.077945,,,,
5950,3291,Soseaua Progresului,,44.413658,26.080249,,,,
5957,3292,Soseaua Viilor,,44.416272,26.083133,,,,
5956,3293,Calea Victoriei,,44.445657,26.091698,,,,
5954,3294,Calea Victoriei,,44.445716,26.091475,,,,
3396,33,Bd. Ferdinand,,44.446411,26.134414,,,,
3097,330,Calea 13 Septembrie,,44.422852,26.069307,,,,
6624,3300,Piata Baneasa,,44.493863,26.083724,,,,
6628,3302,Muzeul Satului,,44.47275,26.07557,,,,
6626,3303,Aeroport Henri Coanda Plecari,,44.571393,26.076683,,,,
3376,3304,Compasului,,44.427004,26.02908,,,,
3375,3305,Compasului,,44.427073,26.029279,,,,
3378,3306,Republica,,44.433879,26.185462,,,,
6619,3307,Carrefour Militari,,44.43784,25.958591,,,,
6635,3309,Deal,,44.353764,25.996458,,,,
3099,331,Inox,,44.418316,26.075293,,,,
6646,3310,Deal,,44.353631,25.996881,,,,
6570,3313,Carrefour Militari,,44.438161,25.958923,,,,
6575,3317,Cartier Rosu,,44.441498,26.003652,,,,
6577,3318,Ghirlandei,,44.43955,26.015383,,,,
6568,3319,Margelelor,,44.440141,26.011891,,,,
6582,3320,Bd. Anul 1864,,44.438068,26.009238,,,,
6581,3321,Catinei,,44.44063,26.005599,,,,
6585,3322,Stramosilor,,44.438851,26.00717,,,,
6586,3323,Margelelor,,44.438345,26.01032,,,,
6587,3324,Ghirlandei,,44.440512,26.013268,,,,
6590,3328,Soseaua Pipera,,44.479965,26.092422,,,,
6594,3330,Putul Olteni,,44.403545,25.959543,,,,
6595,3331,Putul Olteni,,44.403464,25.957677,,,,
6547,3334,Rosia Montana,,44.437934,26.023335,,,,
6549,3341,Tomesti,,44.382758,26.131987,,,,
6548,3342,Tomesti,,44.382132,26.132336,,,,
3805,3344,Cartier Colentina,,44.469592,26.145744,,,,
6562,3346,Coralilor,,44.49345,26.063663,,,,
6559,3348,Coralilor,,44.49335,26.063801,,,,
3807,3351,Balotului,,44.468325,26.153965,,,,
6563,3352,Pecinisca,,44.378363,26.046972,,,,
6564,3353,Pecinisca,,44.378688,26.04696,,,,
6513,3356,City Center,,44.480001,26.067294,,,,
6517,3357,Pod Mihai Bravu,,44.408886,26.123832,,,,
3287,3358,Ghencea,,44.415059,26.045745,,,,
6519,3359,Hala Traian,,44.433408,26.120839,,,,
6504,3360,Aeroport Henri Coanda Sosiri,,44.569422,26.07731,,,,
6506,3361,Matei Basarab,,44.429787,26.120185,,,,
6507,3362,Bd.Unirii,,44.42565,26.118969,,,,
6508,3363,Bd. Octavian Goga,,44.423387,26.11827,,,,
6510,3364,Papazoglu,,44.420767,26.11619,,,,
6512,3365,Scoala Generala 81,,44.419796,26.115391,,,,
6544,3366,Univ. Crestina Dimitrie Cantemir,,44.416032,26.113297,,,,
6539,3368,Univ. Crestina Dimitrie Cantemir,,44.416155,26.11348,,,,
6537,3369,Scoala Generala 81,,44.419455,26.115344,,,,
3101,337,Gara Basarab,,44.449227,26.06723,,,,
6530,3370,Papazoglu,,44.421402,26.116954,,,,
6526,3371,Bd. Octavian Goga,,44.423105,26.118275,,,,
6528,3372,Bd.Unirii,,44.4265,26.11926,,,,
6534,3373,Matei Basarab,,44.431278,26.120741,,,,
6535,3374,Hala Traian,,44.433394,26.121067,,,,
6532,3376,Popa Tatu,,44.443276,26.083311,,,,
6485,3378,Camin U4,,44.444148,26.056524,,,,
6489,3379,Canton Drumuri,,44.404491,25.89766,,,,
6478,3380,Canton Drumuri,,44.4043,25.898171,,,,
6479,3381,Dumitru Brumarescu,,44.366797,26.133147,,,,
6480,3382,Dumitru Brumarescu,,44.366772,26.133216,,,,
6482,3383,Izvorul Oltului,,44.376097,26.106211,,,,
6473,3384,C.E.T. Progresul,,44.372783,26.10491,,,,
6474,3385,Actiunii,,44.370066,26.103094,,,,
6475,3386,Depoul Giurgiului,,44.370798,26.097938,,,,
6477,3387,Tudor Gociu,,44.371752,26.093777,,,,
3273,3388,Piata Sf. Stefan,,44.433298,26.116322,,,,
3270,3389,Ghencea,,44.414685,26.046789,,,,
3243,3390,Ghencea,,44.41511,26.045735,,,,
3265,3391,Piata Presei,,44.475856,26.071731,,,,
3266,3392,Agronomie,,44.471599,26.072391,,,,
3262,3393,Casin,,44.467673,26.074346,,,,
3263,3394,Drumul Taberei,,44.422609,26.034438,,,,
3257,3395,Drumul Taberei,,44.422676,26.034478,,,,
3259,3396,Bd. Ion Mihalache,,44.462548,26.073122,,,,
3255,3397,Casin,,44.468466,26.073988,,,,
3256,3398,Agronomie,,44.471506,26.072478,,,,
3175,3399,Piata Presei,,44.475418,26.072692,,,,
3397,34,Soseaua Mihai Bravu,,44.443492,26.128525,,,,
3345,3400,Bd. Ion Mihalache,,44.461799,26.072141,,,,
3348,3401,Brasov,,44.414553,26.035006,,,,
6923,3402,Anghel Moldoveanu,,44.373092,26.091419,,,,
6924,3405,Casa Academiei,,44.424659,26.085805,,,,
3350,3406,Zizin,,44.41759,26.128905,,,,
3339,3407,Bucuresti-Mall,,44.419832,26.125911,,,,
3338,3408,Bucuresti-Mall,,44.419928,26.125774,,,,
3341,3409,Zizin,,44.417811,26.128517,,,,
6862,342,Calea Vitan,,44.41432,26.133003,,,,
6925,3420,Albotesti,,44.393021,26.027925,,,,
3117,344,Calea 13 Septembrie,,44.422679,26.069476,,,,
6963,3440,Tufanelelor,,44.439668,26.005114,,,,
6962,3441,Mihail Glinka,,44.462001,26.107356,,,,
6986,3443,Tudor Gociu,,44.37119,26.094676,,,,
3889,3444,Soseaua Mihai Bravu,,44.424824,26.136895,,,,
6987,3445,Aviator Popisteanu,,44.469176,26.059295,,,,
6988,3446,Bd. Expozitiei,,44.472725,26.05621,,,,
6989,3447,Traian Vasile,,44.473551,26.061757,,,,
6991,3448,Universitatea Romano-Americana,,44.474273,26.066356,,,,
6992,3449,Universitatea Romano-Americana,,44.474292,26.066005,,,,
3119,345,Inox,,44.41883,26.074591,,,,
6984,3450,Traian Vasile,,44.473518,26.060969,,,,
6982,3451,Bd.Expozitiei,,44.472204,26.055978,,,,
6985,3452,Piata Presei,,44.475284,26.072139,,,,
7008,3454,Piata Presei,,44.475757,26.071969,,,,
7010,3455,Piata Presei,,44.475818,26.072826,,,,
7005,3456,Piata Presei,,44.475701,26.071719,,,,
7003,3459,Ghencea,,44.414931,26.045913,,,,
3121,346,Calea Rahovei,,44.415154,26.079109,,,,
7001,3460,Ghencea,,44.414798,26.046154,,,,
6998,3463,Ghencea,,44.414931,26.046079,,,,
6996,3464,Ghencea,,44.414838,26.046271,,,,
7023,3466,Ghencea,,44.414905,26.045611,,,,
7024,3467,Ghencea,,44.414768,26.045851,,,,
11130,3468,Valea Ialomitei,,44.421394,26.014509,,,,
3930,3469,Tacerii,,44.40226,26.050729,,,,
3123,347,Spatarul Preda,,44.411556,26.083396,,,,
3927,3471,Bd. Timisoara,,44.427996,26.05475,,,,
3394,3473,Piata Presei,,44.475422,26.072464,,,,
7018,3474,Drumul Cooperativei,,44.413575,26.031225,,,,
7017,3475,Drumul Cooperativei,,44.413581,26.029979,,,,
6851,3478,Rocon,,44.365268,26.04009,,,,
6850,3479,Rocon,,44.365556,26.040385,,,,
6855,3484,Subcetate,,44.4829,26.028819,,,,
6856,3485,Marmurei,,44.48258,26.029138,,,,
6863,3487,Ghencea,,44.415236,26.046169,,,,
3112,349,Stefan Hepites,,44.40766,26.092056,,,,
6867,3491,Lujerului,,44.434383,26.033671,,,,
6864,3492,Piata Arsenalului,,44.425055,26.078561,,,,
6866,3493,Casa Academiei,,44.424876,26.0859,,,,
3141,3495,Ghencea,,44.414736,26.046789,,,,
6874,3499,Gheorghe Manu,,44.448081,26.089252,,,,
7140,3502,Dr. Constantin Istrati,,44.412303,26.087968,,,,
7141,3503,Bd. Uverturii,,44.443267,26.020086,,,,
7138,3504,Apusului,,44.443155,26.019226,,,,
7139,3505,Depoul Giurgiului,,44.370614,26.09872,,,,
7144,3506,Pogoanele,,44.370036,26.102985,,,,
3505,3509,Liviu Rebreanu,,44.424572,26.177899,,,,
3642,351,Cimitirul Serban Voda,,44.401767,26.098886,,,,
3354,3511,Liviu Rebreanu,,44.424161,26.177473,,,,
3353,3512,Radox,,44.424232,26.006508,,,,
3358,3513,Radox,,44.424242,26.006059,,,,
10412,3514,Spitalul Fundeni,,44.466799,26.156083,,,,
7319,3515,C.E.T. Progresul,,44.372678,26.105123,,,,
7318,3516,Metro Voluntari,,44.495166,26.197128,,,,
7320,3518,Metro Voluntari,,44.495349,26.197111,,,,
3644,352,Opris Ilie,,44.399857,26.105238,,,,
7332,3524,Valea Ialomitei,,44.420542,26.012956,,,,
7333,3527,Metro Berceni,,44.36559,26.125633,,,,
7335,3528,Metro Berceni,,44.365804,26.125712,,,,
3643,353,Bd. Constantin Brancoveanu,,44.398396,26.109219,,,,
3794,3535,Imprimeria Nationala,,44.433882,26.000885,,,,
3793,3536,Imprimeria Nationala,,44.43373,26.001631,,,,
7284,3537,Facultatea de Filosofie,,44.440843,26.06625,,,,
3645,354,Husi,,44.396234,26.11489,,,,
7384,3558,Strandul Tei,,44.47151,26.124668,,,,
7381,3559,Strandul Tei,,44.471661,26.124727,,,,
3938,3568,Piata Spaniei,,44.445938,26.108812,,,,
3941,3569,Piata Spaniei,,44.446042,26.108668,,,,
7386,3570,Dimitrie Grozdea,,44.449738,26.148271,,,,
7389,3571,Dimitrie Grozdea,,44.450207,26.147857,,,,
7359,3591,Cartierul Nou,,44.330745,26.172306,,,,
7357,3592,Cartierul Nou,,44.331312,26.171948,,,,
3395,36,Vatra Luminoasa,,44.437924,26.136163,,,,
7240,360,Comisani,,44.375558,26.13803,,,,
7524,3602,Peris,,44.475936,26.151446,,,,
7504,3618,Albotesti,,44.393274,26.029131,,,,
6127,3636,Sat Dumitrana,,44.324739,25.994097,,,,
6128,3637,Sat Dumitrana,,44.324507,25.994336,,,,
6121,3638,Grup Scolar Ind. Republica,,44.43219,26.191981,,,,
6123,3639,Grup Scolar Ind. Republica,,44.432415,26.191437,,,,
7241,364,Complex Comercial,,44.451535,26.146019,,,,
6139,3642,Crinului,,44.480492,26.034271,,,,
6141,3643,Crinului,,44.481015,26.033445,,,,
6143,3644,Minerva,,44.478806,26.038535,,,,
6145,3645,Minerva,,44.479315,26.037691,,,,
3379,3650,Hala Traian,,44.43307,26.120544,,,,
3911,3652,Depoul Alexandria,,44.398613,26.044497,,,,
3390,3654,Piata Vitan,,44.42285,26.123732,,,,
3391,3655,Piata Vitan,,44.422601,26.123827,,,,
6175,3656,Institutul Pasteur,,44.468591,26.027983,,,,
6177,3657,Piata Giulesti,,44.466367,26.035085,,,,
6171,3658,Bd. Constructorilor,,44.462152,26.0408,,,,
6173,3659,Mehadiei,,44.455832,26.043225,,,,
3628,366,Soseaua Vitan Barzesti,,44.385793,26.140079,,,,
6148,3661,Mehadiei,,44.456541,26.042725,,,,
6147,3662,Bd. Constructorilor,,44.463498,26.041449,,,,
6202,3663,Piata Giulesti,,44.466484,26.035047,,,,
6204,3664,Institutul Pasteur,,44.468968,26.027026,,,,
6178,3671,Mircea Vulcanescu,,44.441421,26.072177,,,,
6180,3672,Primaria Sector 6,,44.445825,26.067189,,,,
6179,3673,Primaria Sector 6,,44.445289,26.067676,,,,
6072,3679,Costisa,,44.411314,26.011737,,,,
6071,3680,Costisa,,44.411372,26.012479,,,,
3337,3686,Parcul Carol I,,44.419776,26.095169,,,,
3340,3687,Parcul Carol I,,44.419417,26.094986,,,,
3632,369,Soseaua Vitan Barzesti,,44.386273,26.13889,,,,
3771,3700,Dumitru Marinescu,,44.439228,26.143051,,,,
6352,3703,Copsa Mica,,44.467355,26.031903,,,,
6342,3704,Copsa Mica,,44.467696,26.031087,,,,
6343,3705,Godeni,,44.464638,26.039021,,,,
6339,3706,Godeni,,44.465154,26.038339,,,,
3621,371,C.F.R. Progresul,,44.369084,26.088718,,,,
8980,3710,Scoala Tamasi,,44.5839,26.006023,,,,
3622,372,Cap. Raducanu Cristea,,44.372993,26.090218,,,,
8491,3722,Primaria Corbeanca,,44.59415,26.037493,,,,
8492,3723,Primaria Corbeanca,,44.594104,26.037774,,,,
6207,3725,Pasaj Cfr Chitila,,44.515129,25.970607,,,,
8486,3726,Arcadei,,44.596147,26.050314,,,,
8977,3727,Primaverii,,44.591328,26.026463,,,,
8489,3729,Arcadei,,44.59616,26.050711,,,,
6272,3732,Pasaj Marasesti,,44.421355,26.110066,,,,
6276,3735,Pasaj Cfr Chitila,,44.514859,25.971115,,,,
3447,3738,Soseaua Stefan cel Mare,,44.451498,26.119528,,,,
6277,3739,Stirbei Voda,,44.440351,26.093104,,,,
3423,3740,Faur,,44.434343,26.183492,,,,
3422,3741,Bd. Expozitiei,,44.473605,26.061253,,,,
6257,3749,Oituz,,44.291252,26.060814,,,,
6268,3750,Oituz,,44.29118,26.06063,,,,
6659,3751,Depoul Dudesti,,44.421476,26.131843,,,,
6660,3752,Depoul Dudesti,,44.42164,26.131697,,,,
12074,3756,Piata Baneasa,,44.493923,26.083987,,,,
12075,3757,Piata Baneasa,,44.493871,26.084168,,,,
6661,3758,Liviu Rebreanu,,44.285244,26.059988,,,,
6662,3759,Liviu Rebreanu,,44.285514,26.060208,,,,
7236,376,Drumul Taberei 85,,44.417739,26.020904,,,,
6672,3764,Raul Colentina,,44.453949,26.149314,,,,
6673,3765,Dimitrie Grozdea,,44.451789,26.151822,,,,
6674,3766,Torentului,,44.446546,26.155561,,,,
6675,3767,Bd. Chisinau,,44.443746,26.157735,,,,
6676,3768,Torentului,,44.447189,26.154982,,,,
6677,3769,Dimitrie Grozdea,,44.452409,26.151833,,,,
7235,377,Liviu Rebreanu,,44.424454,26.163289,,,,
6670,3770,Raul Colentina,,44.454629,26.148668,,,,
6612,3775,Complex Comercial,,44.457449,26.041624,,,,
6614,3776,Complex Comercial,,44.45812,26.04122,,,,
6610,3777,Complex Comercial,,44.402232,26.062719,,,,
6611,3778,Piata Sf. Gheorghe,,44.432234,26.103322,,,,
10414,378,Raul Doamnei,,44.415594,26.023951,,,,
6608,3780,E.L.C.E.N.,,44.440311,26.066125,,,,
6606,3782,Depozit Pajura,,44.484257,26.048572,,,,
6605,3783,Bd. Gloriei,,44.483542,26.04157,,,,
6642,3784,I.N.M.H.,,44.513439,26.078629,,,,
6643,3785,I.N.M.H.,,44.513248,26.077811,,,,
6645,3786,Horia Macelariu,,44.490705,26.085027,,,,
3890,3787,Spitalul Dr. Alexandru Obregia,,44.385009,26.122238,,,,
3888,3788,Spitalul Dr. Alexandru Obregia,,44.384674,26.122369,,,,
6641,3789,Ciuca Stefan,,44.479416,26.149541,,,,
7233,379,Pod Baneasa,,44.491281,26.07921,,,,
6637,3790,Escalei,,44.481657,26.147536,,,,
6631,3791,Mentiunii,,44.481693,26.142951,,,,
6629,3792,Oituz,,44.479728,26.14314,,,,
6633,3793,Zamfir Nicolae,,44.473881,26.145103,,,,
6632,3794,Gherghitei,,44.471725,26.141504,,,,
3399,38,Baba Novac,,44.424908,26.137447,,,,
3502,3800,Soseaua Colentina,,44.452994,26.126293,,,,
3614,382,Cap. Raducanu Cristea,,44.373553,26.090331,,,,
6714,3821,Piata Rahova,,44.406626,26.06371,,,,
6718,3826,Bd. Marasesti,,44.420981,26.103021,,,,
6715,3827,Dr. Constantin Istrati,,44.411846,26.089145,,,,
6716,3828,Autogara Filaret,,44.415263,26.092682,,,,
6719,3829,Autogara Filaret,,44.414553,26.09115,,,,
3612,383,C.F.R. Progresul,,44.369787,26.089136,,,,
11106,3844,Calea 13 Septembrie,,44.422816,26.069229,,,,
6713,3847,Dristorului,,44.419826,26.138886,,,,
3617,385,Spitalul Sf. Pantelimon,,44.441948,26.174415,,,,
6703,3857,Piata Titan,,44.412689,26.164957,,,,
6699,3858,Dumbrava Noua,,44.411787,26.168333,,,,
3616,386,Soseaua Fundeni,,44.442571,26.164714,,,,
6681,3863,Sos.Stefan cel Mare,,44.452585,26.101006,,,,
6688,3865,Policolor,,44.408051,26.191872,,,,
6686,3866,Stirom,,44.408539,26.188737,,,,
6685,3867,I.O.R. 2,,44.40943,26.183003,,,,
6684,3868,Ozana,,44.41034,26.177041,,,,
6678,3869,Bd. 1 Decembrie 1918,,44.411093,26.172076,,,,
3615,387,Bd. Chisinau,,44.443026,26.156151,,,,
6691,3870,Dumbrava Noua,,44.412318,26.167579,,,,
6692,3871,Fizicienilor,,44.415276,26.152863,,,,
6893,3873,Piata Ramnicu Sarat,,44.418043,26.145747,,,,
6892,3874,Dristorului,,44.419101,26.140611,,,,
6896,3877,Bd. 1 Decembrie 1918,,44.410554,26.173695,,,,
6894,3878,Ozana,,44.409845,26.178366,,,,
6895,3879,I.O.R. 2,,44.409009,26.183954,,,,
6905,3880,Stirom,,44.408086,26.189704,,,,
6902,3881,Policolor,,44.407619,26.19271,,,,
6917,3884,Barbu Vacarescu,,44.464255,26.108043,,,,
6919,3886,Faur,,44.426425,26.179851,,,,
6920,3887,Witing,,44.442913,26.071147,,,,
6922,3889,Bd. Banu Manta,,44.452457,26.074536,,,,
3398,39,Calea Dudesti,,44.419542,26.136334,,,,
3587,390,Lt. Victor Manu,,44.442085,26.140704,,,,
3586,391,Piata Iancului,,44.441388,26.134822,,,,
3591,392,Matasari,,44.440532,26.129398,,,,
3589,393,Scoala Iancului,,44.439521,26.123877,,,,
7081,3932,Teius,,44.403206,26.057108,,,,
7082,3934,Teius,,44.40354,26.058335,,,,
7079,3935,Mihai Eminescu,,44.448203,26.103057,,,,
3595,394,Hala Traian,,44.433249,26.120877,,,,
3593,395,Piata Corneliu Coposu,,44.431861,26.110581,,,,
7129,3951,Pasaj Baneasa,,44.486611,26.093812,,,,
7120,3953,Soseaua Pipera,,44.481073,26.101653,,,,
7122,3955,Giuseppe Verdi,,44.468446,26.10936,,,,
7098,3961,Soseaua Pipera,,44.47965,26.103213,,,,
7095,3962,Maguricea,,44.484775,26.096506,,,,
7093,3963,Pasaj Baneasa,,44.485855,26.094687,,,,
3472,3969,Calea 13 Septembrie,,44.422104,26.070311,,,,
3463,3970,Navigatiei,,44.477866,26.041045,,,,
3537,3971,Navigatiei,,44.478021,26.040749,,,,
7166,3973,Sos.Pantelimon,,44.446608,26.1343,,,,
7169,3975,Ciuca Stefan,,44.476126,26.14458,,,,
7224,398,Heliade Intre Vii,,44.453979,26.142319,,,,
7155,3987,Sos. Berceni 104,,44.349475,26.157905,,,,
7154,3988,Sos. Berceni 104,,44.34968,26.15788,,,,
7153,3989,Bd. Ghica Tei,,44.46354,26.126176,,,,
3608,399,Stadion Dinamo,,44.452985,26.105985,,,,
7147,3990,Academia de Politie,,44.516715,26.084086,,,,
3770,3991,Foisorul de Foc,,44.441078,26.120548,,,,
3812,3993,Cremenita (Piata Colentina),,44.464374,26.134538,,,,
3813,3994,Cremenita (Piata Colentina),,44.464811,26.135427,,,,
7308,3995,Complex Comercial Apusului,,44.438221,26.01502,,,,
3145,4,Calea Vitan,,44.415376,26.133371,,,,
3403,40,Dristorului,,44.419337,26.140225,,,,
3149,400,Stadion Dinamo,,44.452962,26.104647,,,,
6964,4000,Universitate,,44.435063,26.10044,,,,
6966,4001,Sura Mare,,44.400903,26.097153,,,,
6961,4003,Complex Comercial Baneasa,,44.508136,26.086019,,,,
6952,4004,Complex Comercial Baneasa,,44.507842,26.08634,,,,
3147,401,Piata Iancului,,44.441582,26.132855,,,,
6936,4011,Poiana Cu Aluni,,44.463319,26.141147,,,,
6932,4017,Pascal Cristian,,44.446329,26.056845,,,,
6934,4018,Tibles,,44.449984,26.055111,,,,
3151,402,Pridvorului,,44.397836,26.120891,,,,
3351,4025,Piata Sf. Vineri,,44.429859,26.107536,,,,
3679,403,Calea Victoriei,,44.448575,26.089543,,,,
6915,4033,Drumul Razboieni,,44.554793,25.957227,,,,
6914,4034,Complex Comercial West Park,,44.435481,25.958106,,,,
3334,4035,Piata Sf. Vineri,,44.429346,26.107379,,,,
6908,4037,Jandarmeriei,,44.508918,26.061106,,,,
6909,4038,Grigore Alexandru Ghica,,44.5104,26.066875,,,,
6907,4039,Grigore Alexandru Ghica,,44.510076,26.065641,,,,
3138,404,Piata Chirigiu,,44.417425,26.081658,,,,
6889,4040,G-ral Ion Bunoaica,,44.511426,26.070847,,,,
6888,4041,G-ral Ion Bunoaica,,44.511305,26.070325,,,,
3321,4043,Calea Vitan,,44.415379,26.132044,,,,
3788,4046,Piata Unirii,,44.424793,26.103905,,,,
6891,4047,Petuniei,,44.427473,26.015153,,,,
7137,4048,Petuniei,,44.428072,26.015805,,,,
7136,4049,Sos. Viilor,,44.416982,26.083418,,,,
3508,4050,Piata Obor,,44.451023,26.12981,,,,
3514,4051,Piata Obor,,44.450899,26.129854,,,,
7156,4053,Jiului,,44.484898,26.058163,,,,
7157,4054,Piata Obor,,44.452013,26.12904,,,,
7159,4055,Piata Obor,,44.45055,26.130087,,,,
7160,4056,Antiaeriana,,44.400664,26.050632,,,,
7158,4057,Antiaeriana,,44.400639,26.051081,,,,
7170,4061,Teius,,44.403957,26.057606,,,,
3785,4062,Depoul Alexandria,,44.398184,26.044372,,,,
7171,4063,Depoul Alexandria,,44.399187,26.047307,,,,
7172,4064,Buzoieni,,44.407362,26.058588,,,,
7173,4066,Peco,,44.385788,26.00198,,,,
7174,4067,Peco,,44.385818,26.002397,,,,
7175,4069,Darmanesti,,44.50273,26.054961,,,,
7091,4070,Drumul Regimentului,,44.503298,26.050265,,,,
7087,4071,Piscul Scoartei,,44.504588,26.04029,,,,
7088,4072,Sos.Bucuresti Targoviste,,44.506245,26.027651,,,,
7105,4075,Sos.Bucuresti Targoviste,,44.50617,26.02741,,,,
7106,4076,Piscul Scoartei,,44.504445,26.040644,,,,
7103,4077,Drumul Regimentului,,44.503331,26.049367,,,,
7104,4078,Darmanesti,,44.50253,26.055816,,,,
7102,4079,Nuferilor,,44.490565,26.064519,,,,
8861,408,Biobaza Darvari,,44.419594,25.872956,,,,
7118,4080,Nuferilor,,44.491584,26.064359,,,,
7123,4083,Ansamblul Primavara,,44.410692,26.00667,,,,
7133,4084,Ansamblul Primavara,,44.410756,26.00763,,,,
7134,4086,Cartierul Latin,,44.40848,25.992784,,,,
7135,4087,Piscul Radului,,44.503838,26.045153,,,,
7131,4088,Piscul Radului,,44.504208,26.043189,,,,
7132,4089,Raul Doamnei,,44.41296,26.026342,,,,
3128,409,Piata Chirigiu,,44.417097,26.081077,,,,
7074,4090,Constanta,,44.459059,26.13667,,,,
7078,4091,Constanta,,44.45944,26.136415,,,,
7077,4092,Bd. Iuliu Maniu,,44.434694,26.011968,,,,
7076,4093,Bd. Iuliu Maniu,,44.434562,26.011637,,,,
7075,4094,Pod Centura,,44.38153,25.98839,,,,
7073,4099,Complex Cartier Latin,,44.40573,25.990643,,,,
3402,41,Laborator,,44.417087,26.134834,,,,
3701,410,Gara de Nord,,44.447866,26.076369,,,,
6683,4104,Luica,,44.37863,26.094217,,,,
6682,4106,Romprim,,44.38404,26.145692,,,,
6687,4107,Romprim,,44.383531,26.146789,,,,
3182,411,Pridvorului,,44.397612,26.120849,,,,
6690,4113,Piata Ferentari,,44.39891,26.084778,,,,
6700,4117,Sebastian,,44.412555,26.072644,,,,
6701,4118,Petre Ispirescu,,44.409893,26.068991,,,,
6702,4119,ADP Sector 1,,44.5214,26.028491,,,,
6706,4120,ADP Sector 1,,44.521398,26.028699,,,,
6708,4122,Soseaua Odai 179,,44.531197,26.055483,,,,
6745,4126,Cartier Vitan Barzesti,,44.398123,26.142896,,,,
3178,413,Cesarom,,44.431542,26.000817,,,,
6759,4137,Lacul Grivita,,44.505281,26.036047,,,,
6760,4138,Lacul Grivita,,44.505451,26.03539,,,,
8404,414,Primaria Cornetu,,44.343185,25.94417,,,,
6763,4140,Pod Lacuri,,44.424276,26.15878,,,,
6764,4141,Pod Lacuri,,44.424129,26.156505,,,,
8435,4143,Policlinica,,44.594184,26.042628,,,,
8981,4145,Garoafei,,44.581104,26.000275,,,,
8947,4146,Garoafei,,44.580977,26.000171,,,,
8453,4148,Policlinica,,44.594142,26.042316,,,,
3168,415,Urbis,,44.430981,25.99393,,,,
8948,4150,Scoala Tamasi,,44.583833,26.005884,,,,
6722,4151,Spitalul Nicolae Malaxa,,44.438831,26.178449,,,,
6721,4153,Complex Comercial Pantelimon,,44.439299,26.187427,,,,
6725,4154,Complex Comercial Pantelimon,,44.439288,26.188838,,,,
6723,4156,Spitalul Pantelimon,,44.442233,26.171622,,,,
6724,4157,Soseaua Fundeni,,44.4427,26.163299,,,,
6728,4158,Soseaua Iancului,,44.442596,26.149919,,,,
6727,4159,Bd. Chisinau,,44.442624,26.159885,,,,
6735,4160,Soseaua Morarilor,,44.442306,26.167294,,,,
6736,4161,Spitalul Pantelimon,,44.441745,26.174931,,,,
6739,4164,Spitalul Nicolae Malaxa,,44.438914,26.178324,,,,
6740,4165,Sos. Morarilor,,44.436734,26.167071,,,,
6741,4166,Facultatea de Pompieri,,44.437678,26.168975,,,,
6742,4167,Facultatea de Pompieri,,44.437356,26.171187,,,,
3165,417,S.C. Vest,,44.430595,25.989314,,,,
6591,4170,Complex Comercial Militari,,44.439428,25.984925,,,,
6589,4171,Drumul Funigeilor,,44.40965,25.998085,,,,
6583,4172,Drumul Funigeilor,,44.409627,25.998268,,,,
6584,4179,Cartier Rez. Splaiul Unirii,,44.394625,26.201473,,,,
3162,418,Inscut,,44.430068,25.983084,,,,
6579,4180,Soseaua Mihai Bravu,,44.414533,26.131859,,,,
6578,4181,Penes Curcanul,,44.412059,26.127623,,,,
6576,4182,Pod Mihai Bravu,,44.408631,26.122892,,,,
6569,4183,Pod Vitan Barzesti,,44.403123,26.143029,,,,
6567,4184,Pod Vitan Barzesti,,44.404001,26.141955,,,,
3172,419,Depoul Militari,,44.429556,25.977501,,,,
6556,4194,Pasaj Otopeni,,44.533525,26.068001,,,,
6555,4195,Platforma Comerciala Arcade Berceni,,44.362688,26.123441,,,,
6558,4196,Platforma Comerciala Arcade Berceni,,44.362537,26.122978,,,,
6557,4197,Bd. Ficusului,,44.488844,26.083748,,,,
3401,42,Calea Vitan,,44.414422,26.131919,,,,
3212,420,Depoul Militari,,44.429729,25.979317,,,,
6417,4201,Intrarea Serelor,,44.39825,26.162211,,,,
6220,4202,Nicolae Teclu,,44.395148,26.201566,,,,
6222,4203,Bd. Lacul Tei,,44.457136,26.106733,,,,
6217,4204,Bodesti,,44.438005,26.173758,,,,
6218,4205,Bodesti,,44.437794,26.173333,,,,
6213,4206,Soseaua de Centura,,44.395447,26.22105,,,,
6214,4207,Complex Cartier Latin,,44.404987,25.990257,,,,
6209,4208,Bd. Banu Manta,,44.455498,26.080873,,,,
6211,4209,Bd. Banu Manta,,44.455486,26.080665,,,,
6227,4212,C.E.T. Sud Vitan,,44.405686,26.14804,,,,
6235,4216,Barbu Vacarescu,,44.480723,26.104232,,,,
3215,422,Inscut,,44.430074,25.983489,,,,
6243,4220,Barbu Vacarescu,,44.480968,26.104187,,,,
6242,4221,Drumul Cooperativei,,44.413216,26.030483,,,,
6246,4222,Cimitirul Ghencea 3,,44.403954,26.021544,,,,
6252,4224,Bascov,,44.408669,26.025972,,,,
6253,4225,Bascov,,44.40982,26.027183,,,,
6256,4229,Fortului,,44.516655,26.014053,,,,
3213,423,S.C. Vest,,44.430583,25.98968,,,,
6265,4230,Parc Industrial,,44.518643,26.011727,,,,
6269,4233,Stadion FRF,,44.539412,25.983137,,,,
6267,4234,Stadion FRF,,44.538793,25.984092,,,,
6271,4237,Parc Industrial,,44.518482,26.01182,,,,
6273,4238,Fortului,,44.516618,26.013959,,,,
6469,424,Gara Progresul,,44.366439,26.090646,,,,
6286,4241,Cartier Constantin Brancusi,,44.419036,26.00281,,,,
6288,4242,Parcul Constantin Brancusi,,44.418478,26.007745,,,,
6287,4243,Coloana Infinitului,,44.419515,26.010094,,,,
6290,4244,Masa Tacerii,,44.420083,26.012424,,,,
6289,4245,Valea Argesului,,44.415783,26.015546,,,,
6301,4246,Valea Doftanei,,44.41896,26.013071,,,,
6300,4247,Parcul Constantin Brancusi,,44.418459,26.006973,,,,
6298,4248,Soseaua Orhideelor,,44.443943,26.060924,,,,
3217,425,Urbis,,44.430983,25.994329,,,,
6307,4252,Luica,,44.378947,26.090597,,,,
6306,4254,Petrom,,44.492233,26.063958,,,,
6303,4255,Petrom City,,44.490753,26.062265,,,,
6305,4256,Cartier Damaroaia,,44.488488,26.05235,,,,
6320,4257,Cartier Damaroaia,,44.487929,26.051872,,,,
3488,4258,Calea Plevnei,,44.446984,26.0625,,,,
6322,4259,Caracal,,44.394946,26.048685,,,,
3201,426,Cesarom,,44.431542,26.00117,,,,
6326,4260,Tobosari,,44.395187,26.054921,,,,
6327,4261,Gutuilor,,44.399792,26.056048,,,,
6328,4262,Piata Rahova,,44.403658,26.062489,,,,
6329,4263,Petre Grigoreanu,,44.397813,26.061707,,,,
6323,4265,Muntii Carpati,,44.394048,26.064292,,,,
6324,4266,Scoala Generala Nr. 127,,44.395745,26.064688,,,,
6325,4267,Dumitru Penes,,44.39985,26.065711,,,,
6350,4268,Piata Rahova,,44.40474,26.061038,,,,
6348,4269,Sere,,44.395454,26.173162,,,,
6466,427,Oras Buftea,,44.575583,25.940869,,,,
6364,4270,Splaiul Unirii 749,,44.396961,26.169615,,,,
6356,4271,Podul Ilfovat,,44.473089,26.017178,,,,
6357,4272,Podul Ilfovat,,44.47265,26.017749,,,,
6354,4273,INML,,44.388586,26.14135,,,,
6355,4274,INML,,44.389375,26.142127,,,,
6358,4275,Gradinita nr. 115,,44.491781,26.058625,,,,
6359,4276,Gradinita nr. 115,,44.49169,26.058531,,,,
3719,428,Piata Buzesti,,44.447776,26.083105,,,,
6374,4284,Rasadnitei,,44.474447,26.005419,,,,
6376,4285,Giulesti Sarbi,,44.471123,26.000898,,,,
6378,4287,Giuseppe Verdi,,44.469643,26.109961,,,,
3717,429,Calea Victoriei,,44.447982,26.088313,,,,
3332,4290,Calea Giulesti,,44.448127,26.064854,,,,
6088,4291,Taberei,,44.393913,26.185029,,,,
3335,4296,Pasajul Basarab,,44.449969,26.068733,,,,
3336,4297,Pasajul Basarab,,44.450057,26.068947,,,,
3400,43,Penes Curcanul,,44.412279,26.128168,,,,
3231,430,Piata Regina Maria,,44.422015,26.09149,,,,
7559,4309,Cartier Militari,,44.446385,25.982411,,,,
3229,431,Hala Traian,,44.43297,26.121406,,,,
7564,4311,Oasului,,44.492008,26.028201,,,,
7567,4312,Liceul Dumitru Dumitrescu,,44.571611,25.943407,,,,
7566,4313,Liceul Dumitru Dumitrescu,,44.571436,25.943423,,,,
7565,4314,Drumul Razboieni,,44.554824,25.956957,,,,
7569,4316,Drumul Osiei,,44.435825,25.987424,,,,
7568,4319,Complex Comercial Titan,,44.423749,26.177367,,,,
7591,4320,Complex Comercial Colosseum,,44.491504,26.014037,,,,
7589,4321,Complex Comercial Titan,,44.423252,26.176578,,,,
3571,4322,Piata Ramnicu Sarat,,44.417829,26.14595,,,,
3520,4323,Piata Ramnicu Sarat,,44.418029,26.14541,,,,
3521,4324,Valea Cascadelor,,44.423705,25.999767,,,,
3518,4325,Valea Cascadelor,,44.423764,26.00067,,,,
7533,4326,Valea Cascadelor,,44.423655,26.000294,,,,
7531,4327,Valea Cascadelor,,44.42352,25.99839,,,,
7529,4329,Bd. Metalurgiei 136,,44.365795,26.12923,,,,
7522,4330,Bd. Metalurgiei 136,,44.366001,26.129896,,,,
7519,4333,Calea Ferentari,,44.413294,26.072941,,,,
7547,4334,Resita,,44.378118,26.097915,,,,
7550,4337,Valea Cascadelor,,44.424985,25.999271,,,,
7543,4338,Complex Comercial Titan,,44.423978,26.17587,,,,
7544,4339,Hotel Phoenicia,,44.492082,26.08824,,,,
7537,4340,La Botea,,44.256668,26.098615,,,,
7534,4342,Liceu,,44.450806,26.012157,,,,
7536,4343,Bucur Obor,,44.44857,26.125942,,,,
7535,4344,Bucur Obor,,44.448329,26.125242,,,,
7500,4346,Complex Auto Splaiul Unirii,,44.398312,26.164294,,,,
7497,4347,Pod Ciorogarla,,44.342439,26.021207,,,,
7498,4348,Pod Ciorogarla,,44.342458,26.02097,,,,
7501,4349,Sold. Adrian Patru,,44.490888,26.010596,,,,
7510,4356,Piata Unirii 3,,44.425816,26.103265,,,,
7512,4357,Piata Unirii 4,,44.427806,26.104,,,,
7514,4358,Piata Unirii 5,,44.428065,26.103987,,,,
3228,436,Piata Regina Maria,,44.421794,26.090994,,,,
7505,4361,Sos. Berceni 104 S,,44.351552,26.156356,,,,
7503,4362,Sos. Berceni 104 S,,44.351741,26.156291,,,,
3486,4365,Radio Romania,,44.440276,26.081474,,,,
3485,4366,Radio Romania,,44.440681,26.08139,,,,
3442,4367,Mircea Vulcanescu,,44.443304,26.081063,,,,
3441,4368,Mircea Vulcanescu,,44.443655,26.081133,,,,
3440,4369,Vasile Parvan,,44.436508,26.083859,,,,
7452,4370,Mircea Vulcanescu,,44.442368,26.080777,,,,
7451,4373,Pasaj Colentina,,44.477789,26.163216,,,,
7448,4375,Barajul Iezerul,,44.432888,26.172427,,,,
7444,4376,Barajul Iezerul,,44.432176,26.172844,,,,
3740,438,Piata Buzesti,,44.44788,26.081218,,,,
7468,4380,Universitatea Hyperion,,44.43234,26.125442,,,,
7478,4381,Delea Veche,,44.431656,26.130369,,,,
7480,4382,Piata Hurmuzachi,,44.431713,26.136865,,,,
7482,4383,Patinoar,,44.432715,26.145805,,,,
7471,4385,Bd. Nicolae Grigorescu,,44.435027,26.160781,,,,
7473,4386,Baia de Arama,,44.436042,26.164586,,,,
7475,4387,Lucretiu Patrascanu,,44.436603,26.167264,,,,
7477,4388,Cartier Fortuna Coborare,,44.389797,26.005205,,,,
7414,4389,Baia de Arama,,44.435992,26.163843,,,,
7404,4390,Bd. Nicolae Grigorescu,,44.435231,26.160938,,,,
7408,4392,Patinoar,,44.43288,26.146359,,,,
7409,4393,Piata Hurmuzachi,,44.432353,26.13997,,,,
7406,4394,Delea Veche,,44.432019,26.12875,,,,
7407,4395,Universitatea Hyperion,,44.43255,26.125162,,,,
7413,4397,Piata Alba Iulia,,44.425536,26.127495,,,,
7410,4398,Bd. Nicolae Balcescu,,44.439452,26.100572,,,,
7411,4399,Bd. Nicolae Balcescu,,44.43989,26.10006,,,,
3527,44,Pod Mihai Bravu,,44.409409,26.122875,,,,
3269,440,Alexandru Sihleanu,,44.432975,26.113699,,,,
7186,4400,Liceul Francez,,44.521563,26.075205,,,,
7183,4401,A.S.E.,,44.447628,26.099471,,,,
7179,4404,Statia Electrica,,44.403883,25.963791,,,,
7178,4405,Floarea Soarelui,,44.401395,25.928964,,,,
7182,4406,Fabulei,,44.401012,25.923705,,,,
7181,4407,Scoala Gheorghe Corneliu,,44.401928,25.906661,,,,
7177,4408,Sarutului,,44.400921,25.923603,,,,
7176,4409,Floarea Soarelui,,44.401288,25.92928,,,,
7188,4410,Ansamblul Olteni,,44.403699,25.963056,,,,
7196,4412,Frumoasa,,44.403281,25.938935,,,,
7195,4413,Morii,,44.403099,25.902554,,,,
7194,4414,Baboi,,44.398415,25.918903,,,,
7193,4415,Bubica,,44.403233,25.93971,,,,
7192,4416,Cernei,,44.403296,25.945721,,,,
7191,4417,Ciutaci,,44.400963,25.909979,,,,
7190,4418,Foisorului,,44.404262,25.935017,,,,
7189,4419,Craitei,,44.406397,25.929926,,,,
3271,442,Bd. Pache Protopopescu,,44.438353,26.120303,,,,
7197,4420,Sipotul Apelor,,44.406921,25.92591,,,,
7198,4421,Alunisului,,44.407202,25.922367,,,,
7200,4422,Ciocarliei,,44.407483,25.916945,,,,
7199,4423,Stadion,,44.404212,25.910839,,,,
7202,4424,Gradinita Domnesti,,44.400243,25.910178,,,,
7201,4425,Marte,,44.398923,25.906473,,,,
7205,4426,Neptun,,44.394782,25.900405,,,,
7204,4427,Orhideelor,,44.391968,25.89632,,,,
7207,4428,Poiana Izvoarelor,,44.38658,25.888392,,,,
7206,4429,Bucegi,,44.384851,25.885854,,,,
3272,443,Scoala Iancului,,44.439461,26.123713,,,,
7209,4430,Marinarilor,,44.383513,25.881533,,,,
7210,4431,Padurarilor,,44.382558,25.876342,,,,
7212,4432,Transilvaniei,,44.381561,25.870905,,,,
7216,4433,Teghes,,44.379354,25.870104,,,,
7215,4434,Transilvaniei,,44.381607,25.871361,,,,
7214,4435,Padurarilor,,44.382705,25.877392,,,,
7213,4436,Marinarilor,,44.383598,25.882268,,,,
7219,4437,Bucegi,,44.385018,25.886182,,,,
7218,4438,Poiana Izvoarelor,,44.386891,25.888931,,,,
7217,4439,Orhideelor,,44.392204,25.896725,,,,
3267,444,Matasari,,44.440331,26.12839,,,,
7222,4440,Neptun,,44.395004,25.900821,,,,
7223,4441,Jupiter,,44.399013,25.906725,,,,
7220,4442,Cartierul Nou,,44.403953,25.91069,,,,
7221,4443,Ciocarliei,,44.407497,25.917594,,,,
7099,4444,Alunisului,,44.407052,25.923816,,,,
7100,4445,Sipotul Apelor,,44.406839,25.926561,,,,
7094,4446,Craitei,,44.405975,25.9308,,,,
7096,4447,Foisorului,,44.404157,25.935267,,,,
7089,4448,Cartierul Latin,,44.407782,25.990275,,,,
7092,4449,Stadionul Dinamo,,44.453103,26.104001,,,,
7086,4450,Stadionul Dinamo,,44.45285,26.104129,,,,
7084,4452,Piata Sudului,,44.392392,26.124765,,,,
7083,4453,Scoala Generala 145,,44.455587,26.144293,,,,
3461,4454,Piata Hurmuzachi,,44.432551,26.13814,,,,
7125,4455,Cartier Constantin Brancusi,,44.418533,26.002414,,,,
7119,4459,Smardan,,44.388431,26.011381,,,,
3268,446,Lt. Victor Manu,,44.44213,26.141396,,,,
7116,4460,Smardan,,44.388569,26.012237,,,,
7115,4461,Parcul Sebastian,,44.416005,26.070213,,,,
7110,4462,Parcul Sebastian,,44.415269,26.070732,,,,
7108,4463,Energeticienilor,,44.406763,26.145657,,,,
7114,4464,Energeticienilor,,44.407132,26.144831,,,,
7112,4465,Magnoliei,,44.409114,25.994693,,,,
7150,4466,Magnoliei,,44.40942,25.996502,,,,
7152,4467,Complex Comercial Fundeni,,44.446183,26.166147,,,,
7148,4468,Complex Comercial Fundeni,,44.44678,26.166428,,,,
7149,4469,Livezii,,44.373756,26.045093,,,,
7143,4470,Livezii,,44.373943,26.045336,,,,
3768,4471,Arena Nationala,,44.439667,26.150433,,,,
3767,4472,Arena Nationala,,44.439707,26.150943,,,,
3507,4473,Arena Nationala,,44.433341,26.152573,,,,
3506,4474,Arena Nationala,,44.433341,26.15298,,,,
7146,4476,Arena Nationala,,44.43329,26.153467,,,,
7165,4477,Arena Nationala,,44.433409,26.152655,,,,
3782,4478,Colegiul National Gh. Sincai,,44.415115,26.104584,,,,
3784,4479,Colegiul National Gh. Sincai,,44.413271,26.105298,,,,
3280,448,Bd. Pierre de Coubertin,,44.443028,26.149493,,,,
7162,4480,Colegiul National Gh. Sincai,,44.414921,26.105797,,,,
7161,4481,Colegiul National Gh. Sincai,,44.414581,26.105677,,,,
7163,4482,Colegiul National Gh. Sincai,,44.414868,26.104338,,,,
3534,4483,Colegiul National Gh. Sincai,,44.414536,26.105407,,,,
3535,4484,Colegiul National Gh. Sincai,,44.414339,26.105034,,,,
3536,4486,Zetarilor,,44.386099,26.07822,,,,
7053,4489,Muzeul Culturii Romilor,,44.474261,26.013842,,,,
3281,449,Bd. Chisinau,,44.442992,26.156436,,,,
7044,4490,Muzeul Culturii Romilor,,44.47455,26.013062,,,,
7038,4491,Tandarei,,44.4107,26.148052,,,,
7039,4492,Tandarei,,44.411629,26.148488,,,,
7032,4493,Complex Comercial Vitan,,44.408066,26.140794,,,,
7035,4494,Complex Comercial Vitan,,44.408017,26.140644,,,,
7029,4495,Complex Comercial Vitan,,44.408881,26.139278,,,,
7031,4496,Complex Comercial Vitan,,44.409023,26.138955,,,,
3653,4497,1 Mai,,44.417782,26.035534,,,,
3654,4498,1 Mai,,44.419406,26.047093,,,,
7070,4499,Parcul Drumul Taberei,,44.418406,26.03458,,,,
3526,45,Dristorului,,44.419312,26.140408,,,,
3284,450,Soseaua Morarilor,,44.442442,26.166724,,,,
6709,4500,Parcul Drumul Taberei,,44.417288,26.034335,,,,
3680,4501,Parcul Drumul Taberei,,44.418186,26.033535,,,,
3420,4502,Parcul Drumul Taberei,,44.418406,26.034446,,,,
3421,4503,Parcul Drumul Taberei,,44.417488,26.034423,,,,
6710,4506,Baba Novac,,44.424233,26.13839,,,,
6705,4507,Constantin Cristescu,,44.440079,26.085289,,,,
6704,4508,Arefului,,44.405494,26.022066,,,,
6707,4509,Dantelei,,44.407332,26.017374,,,,
3286,451,Spitalul Sf. Pantelimon,,44.442076,26.172152,,,,
6696,4510,Lavei,,44.405229,26.016087,,,,
6695,4511,Piata Presei,,44.476977,26.073024,,,,
6697,4517,Releului,,44.402435,26.148087,,,,
6689,4518,Bd. Lacul Tei,,44.464831,26.128415,,,,
6679,4520,Colectiv,,44.419579,26.110761,,,,
3539,4523,Piata Iancului,,44.441482,26.135669,,,,
3540,4524,Bd. Pierre de Coubertin,,44.442978,26.14879,,,,
6761,4530,Hala Traian,,44.4329,26.121599,,,,
6755,4535,Alexandru Sihleanu,,44.432911,26.113608,,,,
6752,4536,Hala Traian,,44.43318,26.12026,,,,
6753,4537,Piata Sf. Stefan,,44.433303,26.116819,,,,
6751,4539,Firos,,44.422536,25.987049,,,,
3285,454,Soseaua Iancului,,44.4436,26.149516,,,,
6749,4540,ITIA,,44.42293,25.991467,,,,
6748,4541,Firos,,44.422521,25.987381,,,,
6747,4542,ITIA,,44.422891,25.99207,,,,
6730,4543,Comat Auto,,44.423196,25.99571,,,,
6731,4544,Comat Auto,,44.423198,25.994625,,,,
3758,4545,Balotului,,44.468851,26.153285,,,,
6732,4547,Facultatea de Pompieri,,44.438316,26.167859,,,,
6733,4548,Vasile Gherghel,,44.463954,26.070224,,,,
6734,4549,Clinceni,,44.376272,25.938318,,,,
3290,455,Bd. Ferdinand,,44.446041,26.135026,,,,
3292,456,Horei,,44.441749,26.124539,,,,
6817,4565,Soseaua Nicolae Titulescu,,44.449821,26.070368,,,,
6815,4566,Piata Pucheni,,44.391372,26.06025,,,,
6814,4567,Bragadiru,,44.365404,25.970402,,,,
6813,4568,Hotarului,,44.370681,25.95992,,,,
6811,4569,Soseaua Clinceni,,44.373084,25.954344,,,,
6821,4570,Monumentul Eroilor,,44.371911,25.949202,,,,
6822,4571,Primaria Clinceni,,44.377679,25.942552,,,,
6819,4572,Monumentul Eroilor,,44.371931,25.949126,,,,
6820,4573,Soseaua Clinceni,,44.373255,25.955985,,,,
6818,4574,Hotarului,,44.370971,25.959367,,,,
6795,4576,Gradinita Nr. 2,,44.386894,25.929368,,,,
6794,4577,Strada Sabarului Nr. 155,,44.385234,25.930916,,,,
6797,4578,Biserica Slobozia,,44.380934,25.935077,,,,
6796,4579,Strada Principala,,44.381751,25.93798,,,,
6799,4580,Strada Principala,,44.381668,25.938176,,,,
6800,4581,Biserica Slobozia,,44.380994,25.935087,,,,
6801,4582,Strada Sabarului Nr. 155,,44.384848,25.931213,,,,
6798,4583,Gradinita Nr. 2,,44.386517,25.929812,,,,
6781,4587,Biserica Sfantul Nicolae,,44.448574,26.205237,,,,
6780,4588,Biserica Sfantul Nicolae,,44.448253,26.205261,,,,
6779,4589,Putul Olteni,,44.401919,25.955267,,,,
6783,4590,Putul Olteni,,44.402354,25.956295,,,,
6785,4594,Piata Pucheni,,44.390439,26.063575,,,,
6786,4595,Bacau,,44.393086,26.065913,,,,
6784,4596,Piata Pucheni,,44.391037,26.064069,,,,
6771,4598,Str. Ciorogarlei,,44.396141,25.946334,,,,
6770,4599,Strada Ciorogarlei,,44.396629,25.946039,,,,
3532,46,Depoul Alexandria,,44.399165,26.046913,,,,
3305,460,11 Iunie,,44.423852,26.095029,,,,
6241,4600,Crizantemelor,,44.398824,25.949524,,,,
6240,4601,Crizantemelor,,44.398992,25.949955,,,,
6237,4602,Ciocarliei 79,,44.390825,25.938965,,,,
6236,4603,Ciocarliei 79,,44.390963,25.93948,,,,
6239,4604,Cartier Confort Urban,,44.385785,26.059438,,,,
6238,4605,Cartier Confort Urban,,44.385848,26.05955,,,,
6248,4606,Bragadiru,,44.365617,25.971732,,,,
6247,4607,C.E.T. Vest Militari,,44.422263,25.983181,,,,
6250,4608,C.E.T. Vest Militari,,44.422214,25.982666,,,,
6226,4610,Faur,,44.427319,26.179339,,,,
6224,4616,Macului,,44.32248,26.178582,,,,
6231,4617,Cazanului,,44.30437,26.189314,,,,
6230,4618,Berceni,,44.297082,26.191288,,,,
6229,4619,Berceni,,44.297318,26.191352,,,,
6280,4620,Cazanului,,44.304987,26.189377,,,,
6279,4621,Macului,,44.323083,26.178248,,,,
6281,4623,Parcul Mogosoaia,,44.523742,26.005585,,,,
6283,4624,Palatul Brancovenesc,,44.528622,26.00055,,,,
6282,4625,Intrarea Noua,,44.533728,25.9955,,,,
6284,4626,IPSO,,44.536266,25.990219,,,,
6285,4629,IPSO,,44.536091,25.990665,,,,
3306,463,Delea Veche,,44.431818,26.129528,,,,
6278,4630,Intrarea Noua,,44.533927,25.995206,,,,
6260,4631,Palatul Brancovenesc,,44.528887,26.000175,,,,
6259,4632,Parcul Mogosoaia,,44.524066,26.005015,,,,
6264,4635,Bd. Carol I,,44.436758,26.110474,,,,
6263,4636,Batistei,,44.439882,26.108767,,,,
6262,4637,Bd. Lacul Tei,,44.458096,26.106343,,,,
6261,4638,Muzeul Aviatiei,,44.475852,26.107036,,,,
6266,4639,Bd. Lacul Tei,,44.456219,26.105549,,,,
3307,464,11 Iunie,,44.424282,26.095793,,,,
6258,4640,Soseaua Stefan cel Mare,,44.453713,26.10482,,,,
6334,4642,Piata Sf. Gheorghe,,44.431779,26.105418,,,,
6335,4643,Muzeul Aviatiei,,44.474509,26.107497,,,,
6337,4645,Chiajna,,44.455674,25.959328,,,,
6330,4646,Chiajna,,44.456045,25.961141,,,,
6331,4647,Policlinica,,44.452858,25.996351,,,,
6332,4648,Biblioteca Academiei Romane,,44.444717,26.088579,,,,
6333,4649,Bisericii,,44.454584,25.988564,,,,
9033,465,Facultatea de Medicina,,44.434291,26.071433,,,,
6314,4650,Statuie,,44.456887,25.967227,,,,
6316,4651,Statuie,,44.456867,25.967535,,,,
6315,4652,Policlinica,,44.453129,25.994781,,,,
6313,4653,Popasul Randunica,,44.451797,26.000764,,,,
6311,4655,Bisericii,,44.454536,25.988497,,,,
6312,4656,Popasul Randunica,,44.452183,25.999285,,,,
6309,4657,Scoala de Aplicatie,,44.44918,26.013517,,,,
6310,4658,Eminescu,,44.452625,26.010915,,,,
6308,4659,Preot Sebe Costin,,44.460169,25.985729,,,,
6295,4660,Teodor Mazilu,,44.394484,26.060928,,,,
6294,4661,Confort Urban,,44.387397,26.059168,,,,
6293,4662,Piata Pucheni,,44.391003,26.063509,,,,
6292,4663,Splaiul Unirii,,44.395098,26.212676,,,,
6379,4664,Ghencea,,44.414802,26.045969,,,,
6380,4665,Ghencea,,44.414908,26.045776,,,,
6381,4666,Bd. Preciziei,,44.432225,26.005202,,,,
6383,4668,Hatisului,,44.445418,26.168903,,,,
6384,4669,Stancii,,44.44844,26.173434,,,,
3309,467,Horei,,44.441508,26.124161,,,,
6366,4671,Tipografie,,44.455579,26.180267,,,,
6368,4673,Dobrogeanu Gherea,,44.455583,26.185339,,,,
6367,4674,Condu Stelian,,44.452675,26.185406,,,,
6362,4675,Dascalu Gheorghe,,44.448981,26.185469,,,,
6363,4676,Vasile Alecsandri,,44.449779,26.182744,,,,
6360,4677,Cuza Voda,,44.450327,26.179432,,,,
6361,4678,Monument,,44.451991,26.17909,,,,
6365,4679,Stancii,,44.447942,26.172621,,,,
3310,468,Soseaua Mihai Bravu,,44.444109,26.130061,,,,
6341,4680,Hatisului,,44.445037,26.168245,,,,
6338,4681,Soseaua Stefan cel Mare,,44.452659,26.105214,,,,
6345,4683,Colegiul National I.L. Caragiale,,44.458256,26.095691,,,,
6344,4684,Colegiul National I.L. Caragiale,,44.457182,26.096207,,,,
3763,4685,Colegiul Economic Virgil Madgearu,,44.446701,26.100894,,,,
6394,4686,Colegiul National Victor Babes,,44.462047,26.159021,,,,
6393,4687,Universitatea Tehnica de Constructii,,44.463591,26.124075,,,,
6392,4688,Universitatea Tehnica de Constructii,,44.463478,26.123418,,,,
6391,4689,Universitatea Bioterra,,44.499848,26.067351,,,,
3311,469,Soseaua Iancului,,44.443577,26.149324,,,,
6404,4690,Universitatea Bioterra,,44.499769,26.067435,,,,
6402,4691,Casa de Cultura,,44.505863,25.985775,,,,
6403,4692,Primaria Chitila,,44.508666,25.981365,,,,
6400,4693,Primaria Chitila,,44.508683,25.981033,,,,
6401,4694,Casa de Cultura,,44.506198,25.985084,,,,
6398,4695,Ovo Design,,44.501905,25.991661,,,,
6399,4696,Preot Sebe Costin,,44.459897,25.986293,,,,
